<?xml version="1.0" encoding="utf-8" standalone="yes"?>
<markers>
    <marker logo="" catchment="" category="Police Victim Support Unit" lng="33.7865334" lat="-13.9274654" orgcategory="Malawi Government Dept/Agency" fax="+265 999 637 212" web="" email="info@police.gov.mw" tel="+265 1 796 333 / 342" district="Lilongwe" focalnum="265888439996" num="265999339996" focaltitle="A/SUPT." focalname="Alexander Ngwala" address="P/Bag 305 Capital City, Lilongwe 3" name="Malawi Police Service - Headquarters" secondperson="" secondContact="" secondEmail="" services="" comments=""/>

    <marker logo="" catchment="" category="Police Victim Support Unit" lng="35.0294571" lat="-15.8024120" orgcategory="Malawi Government Dept/Agency" fax="" web="" email="" tel="2651870200" district="Blantyre" focalnum="265882515353" focaltitle="INSP. " focalname="Ralph Mpophiwa" address="PO Box 24,Blantyre" name="Malawi Police Service - Southern Region Headquarters" secondperson="" secondContact="" secondEmail="" services="" comments=""/>

    <marker logo="" catchment="" category="Police Victim Support Unit" lng="35.3261337" lat="-15.3931236" orgcategory="Malawi Government Dept/Agency" fax="" web="" email="" tel="" district="Zomba" focalnum="265882819076" focaltitle="SGT." focalname="Victor Khoviwa" address="" name="Malawi Police Service -Eastern Region Headquarters" secondperson="" secondContact="" secondEmail="" services="" comments=""/>

    <marker logo="" catchment="" category="Police Victim Support Unit" lng="33.7865334" lat="-13.9274654" orgcategory="Malawi Government Dept/Agency" fax="" web="" email="" tel="" district="Lilongwe" focalnum="265881638201" focaltitle="S/INSP." focalname="Esau Kamwendo" address="" name="Malawi Police Service - Central Region Headquarters" secondperson="" secondContact="" secondEmail="" services="" comments=""/>

    <marker logo="" catchment="" category="Police Victim Support Unit" lng="35.1487923" lat="-16.0706978" orgcategory="Malawi Government Dept/Agency" fax="" web="" email="" tel="" district="Thyolo" focalnum="265882497320" focaltitle="CONST." focalname="Fraction Matipwiri" address="" name="Thyolo Police Station" secondperson="" secondContact="" secondEmail="" services="" comments=""/>

    <marker logo="" catchment="" category="Police Victim Support Unit" lng="34.5038643" lat="-15.5623245" orgcategory="Malawi Government Dept/Agency" fax="" web="" email="" tel="" district="Neno" focalnum="265888137012" focaltitle="SGT." focalname="Malani Kumwenda" address="" name="Neno Police Station" secondperson="" secondContact="" secondEmail="" services="" comments=""/>

    <marker logo="" catchment="" category="Police Victim Support Unit" lng="35.5038261" lat="-16.0266132" orgcategory="Malawi Government Dept/Agency" fax="" web="" email="" tel="" district="Mulanje" focalnum="265881009866" focaltitle="INSP. " focalname="Zione Nyirenda" address="" name="Mulanje Police Station" secondperson="" secondContact="" secondEmail="" services="" comments=""/>

    <marker logo="" catchment="" category="Police Victim Support Unit" lng="35.0598869" lat="-15.8195829" orgcategory="Malawi Government Dept/Agency" fax="" web="" email="" tel="" district="Blantyre" focalnum="265884340431" focaltitle="SGT." focalname="Kunyungwi" address="" name="Limbe Police Station" secondperson="" secondContact="" secondEmail="" services="" comments=""/>

    <marker logo="" catchment="" category="Police Victim Support Unit" lng="34.9694786" lat="-15.6821918" orgcategory="Malawi Government Dept/Agency" fax="" web="" email="" tel="" district="Blantyre" focalnum="265881462862" focaltitle="CONST." focalname="C. Chibisa" address="" name="Chileka Police Station" secondperson="" secondContact="" secondEmail="" services="" comments=""/>

    <marker logo="" catchment="" category="Police Victim Support Unit" lng="34.9527206" lat="-14.9883347" orgcategory="Malawi Government Dept/Agency" fax="" web="" email="" tel="" district="Balaka" focalnum="265888740252" focaltitle="SGT." focalname="E. Sungani" address="" name="Balaka Police Station" secondperson="" secondContact="" secondEmail="" services="" comments=""/>

    <marker logo="" catchment="" category="Police Victim Support Unit" lng="35.2955284" lat="-15.1779671" orgcategory="Malawi Government Dept/Agency" fax="" web="" email="" tel="" district="Machinga" focalnum="265884909525" focaltitle="SGT." focalname="Rabecca Kalawa" address="" name="Machinga Police Station" secondperson="" secondContact="" secondEmail="" services="" comments=""/>

    <marker logo="" catchment="" category="Police Victim Support Unit" lng="-14.4792700" lat="-14.4792700" orgcategory="Malawi Government Dept/Agency" fax="" web="" email="" tel="" district="Mangochi" focalnum="265888723168" num ="0999524128" focaltitle="SGT." focalname="J. Sambani" address="" name="Mangochi Police Station" secondperson="" secondContact="" secondEmail="" services="" comments=""/>

    <marker logo="" catchment="" category="Police Victim Support Unit" lng="33.2650795" lat="-9.7013273" orgcategory="Malawi Government Dept/Agency" fax="" web="" email="" tel="" district="Chitipa" focalnum="265884262531" focaltitle="SGT." focalname="Masauko Nyasulu" address="" name="Chitipa Police Station" secondperson="" secondContact="" secondEmail="" services="" comments=""/>

    <marker logo="" catchment="" category="Police Victim Support Unit" lng="33.5999146" lat="-11.9025850" orgcategory="Malawi Government Dept/Agency" fax="" web="" email="" tel="" district="Mzimba" focalnum="265881610722" num="265994853655" focaltitle="SGT." focalname="Clifton Dzoole" address="" name="Mzimba Police Station" secondperson="" secondContact="" secondEmail="" services="" comments=""/>

    <marker logo="" catchment="" category="Police Victim Support Unit" lng="34.0251160" lat="-11.4625988" orgcategory="Malawi Government Dept/Agency" fax="" web="" email="" tel="" district="Mzuzu" focalnum="265888622254" num="265993261767" focaltitle="S/INSP." focalname="Khatazga Banda" address="" name="Mzuzu Police Station" secondperson="" secondContact="" secondEmail="" services="" comments=""/>

    <marker logo="" catchment="" category="Police Victim Support Unit" lng="33.4813995" lat="-13.0368423" orgcategory="Malawi Government Dept/Agency" fax="" web="" email="" tel="" district="Kasungu" focalnum="265999314368" focaltitle="CONST." focalname="Andrew Saulsbury" address="" name="Kasung Police Station" secondperson="" secondContact="" secondEmail="" services="" comments=""/>

    <marker logo="" catchment="" category="Police Victim Support Unit" lng="33.7692528" lat="-13.9897394" orgcategory="Malawi Government Dept/Agency" fax="" web="" email="" tel="" district="Lilongwe" focalnum="265991838557" focaltitle="SGT." focalname="Wilson Chirambo" address="" name="Lilongwe Police Station" secondperson="" secondContact="" secondEmail="" services="" comments=""/>



    <marker logo="" catchment="" category="Police Victim Support Unit" lng="33.7692757" lat="-13.9895725" orgcategory="Malawi Government Dept/Agency" fax="" web="" email="" tel="" district="Lilongwe" focalnum="265999368569" focaltitle="CONST." focalname="George Kamtondo" address="" name="Kanengo Police Station" secondperson="" secondContact="" secondEmail="" services="" comments=""/>

    <marker logo="" catchment="" category="Police Victim Support Unit" lng="34.3282661" lat="-14.3751373" orgcategory="Malawi Government Dept/Agency" fax="" web="" email="" tel="" district="Dedza" focalnum="265991839416" focaltitle="SGT." focalname="Chimtali" address="" name="Dedza Police Station" secondperson="" secondContact="" secondEmail="" services="" comments=""/>

    <marker logo="" catchment="" category="Police Victim Support Unit" lng="34.6373787" lat="-14.8167171" orgcategory="Malawi Government Dept/Agency" fax="" web="" email="" tel="" district="Ntcheu" focalnum="265997783114" focaltitle="CONST." focalname="Patricia Kalilombe" address="" name="Ntcheu Police Station" secondperson="" secondContact="" secondEmail="" services="" comments=""/>

    <marker logo="" catchment="" category="Community Victim Support Unit" lng="33.6751060" lat="-13.5434666" orgcategory="Community Based Organization" fax="" web="" email="Washali@yahoo.co.uk " tel="0995891783/0884098454" district="Dowa" focalnum="265884098454" num="265884098454" focaltitle="District Social Welfare Officer" focalname="Mr. Washali" address="" name="Dzoole" secondperson="" secondContact="" secondEmail="" services="" comments=""/>

    <marker logo="" catchment="" category="Community Victim Support Unit" lng="33.8975525" lat="-13.5530310" orgcategory="Community Based Organization" fax="" web="" email="Washali@yahoo.co.uk " tel="0995891783/0884098455" district="Dowa" focalnum="265884098455" num="265884098455" focaltitle="District Social Welfare Officer" focalname="Mr. Washali" address="" name="Msakambewa" secondperson="" secondContact="" secondEmail="" services="" comments=""/>

    <marker logo="" catchment="" category="Community Victim Support Unit" lng="34.2231789" lat="-13.5623655" orgcategory="Community Based Organization" fax="" web="" email="Washali@yahoo.co.uk " tel="0995891783/0884098456" district="Dowa" focalnum="265884098456" num="265884098456" focaltitle="District Social Welfare Officer" focalname="Mr. Washali" address="" name="Chiwere" secondperson="" secondContact="" secondEmail="" services="" comments=""/>

    <marker logo="" catchment="" category="Community Victim Support Unit" lng="33.6204987" lat="-13.7088680" orgcategory="Community Based Organization" fax="" web="" email="Washali@yahoo.co.uk " tel="0995891783/0884098457" district="Dowa" focalnum="265884098457" num="265884098457" focaltitle="District Social Welfare Officer" focalname="Mr. Washali" address="" name="Kayembe" secondperson="" secondContact="" secondEmail="" services="" comments=""/>

    <marker logo="" catchment="" category="Community Victim Support Unit" lng="33.8153648" lat="-13.7554131" orgcategory="Community Based Organization" fax="" web="" email="Washali@yahoo.co.uk " tel="0995891783/0884098458" district="Dowa" focalnum="265884098458"  num="265884098458" focaltitle="District Social Welfare Officer" focalname="Mr. Washali" address="" name="Mkukula" secondperson="" secondContact="" secondEmail="" services="" comments=""/>

    <marker logo="" catchment="" category="Community Victim Support Unit" lng="33.7621956" lat="-13.5352631" orgcategory="Community Based Organization" fax="" web="" email="Washali@yahoo.co.uk " tel="0995891783/0884098459" district="Dowa" focalnum="265884098459" num="265884098459" focaltitle="District Social Welfare Officer" focalname="Mr. Washali" address="" name="Mponela" secondperson="" secondContact="" secondEmail="" services="" comments=""/>

    <marker logo="" catchment="" category="Community Victim Support Unit" lng="33.6443748" lat="-13.4453688" orgcategory="Community Based Organization" fax="" web="" email="Washali@yahoo.co.uk " tel="0995891783/0884098460" district="Dowa" focalnum="265884098460" num="265884098460" focaltitle="District Social Welfare Officer" focalname="Mr. Washali" address="" name="Chakhdza" secondperson="" secondContact="" secondEmail="" services="" comments=""/>

    <marker logo="" catchment="" category="Community Victim Support Unit" lng="34.0880966" lat="-13.3203268" orgcategory="Community Based Organization" fax="" web="" email="hans.sikwese@yahoo.com" tel="995884171" district="Ntchisi" focalnum="265995884171" focaltitle="District Social Welfare Officer" focalname="Denise Sikwese" address="" name="Kasakula" secondperson="" secondContact="" secondEmail="" services="" comments=""/>

    <marker logo="" catchment="" category="Community Victim Support Unit" lng="34.1054039" lat="-13.3706226" orgcategory="Community Based Organization" fax="" web="" email="hans.sikwese@yahoo.com" tel="995884171" district="Ntchisi" focalnum="265995884172" focaltitle="District Social Welfare Officer" focalname="Denise Sikwese" address="" name="Chikho" secondperson="" secondContact="" secondEmail="" services="" comments=""/>

    <marker logo="" catchment="" category="Community Victim Support Unit" lng="33.8717384" lat="-13.3655920" orgcategory="Community Based Organization" fax="" web="" email="hans.sikwese@yahoo.com" tel="995884171" district="Ntchisi" focalnum="265995884173" focaltitle="District Social Welfare Officer" focalname="Denise Sikwese" address="" name="Kalumo" secondperson="" secondContact="" secondEmail="" services="" comments=""/>

    <marker logo="" catchment="" category="Community Victim Support Unit" lng="33.9988327" lat="-13.2831783" orgcategory="Community Based Organization" fax="" web="" email="hans.sikwese@yahoo.com" tel="995884171" district="Ntchisi" focalnum="265995884174" focaltitle="District Social Welfare Officer" focalname="Denise Sikwese" address="" name="Nthondo" secondperson="" secondContact="" secondEmail="" services="" comments=""/>

    <marker logo="" catchment="" category="Community Victim Support Unit" lng="33.8699150" lat="-13.2626276" orgcategory="Community Based Organization" fax="" web="" email="hans.sikwese@yahoo.com" tel="995884171" district="Ntchisi" focalnum="265995884175" focaltitle="District Social Welfare Officer" focalname="Denise Sikwese" address="" name="Chilooko" secondperson="" secondContact="" secondEmail="" services="" comments=""/>

    <marker logo="" catchment="" category="Community Victim Support Unit" lng="33.8855209" lat="-13.3275938" orgcategory="Community Based Organization" fax="" web="" email="hans.sikwese@yahoo.com" tel="995884171" district="Ntchisi" focalnum="265995884176" focaltitle="District Social Welfare Officer" focalname="Denise Sikwese" address="" name=" Malenga" secondperson="" secondContact="" secondEmail="" services="" comments=""/>

    <marker logo="" catchment="" category="Community Victim Support Unit" lng="33.9520340" lat="-13.4503365" orgcategory="Community Based Organization" fax="" web="" email="hans.sikwese@yahoo.com" tel="995884171" district="Ntchisi" focalnum="265995884177" focaltitle="District Social Welfare Officer" focalname="Denise Sikwese" address="" name="Vuso Jere" secondperson="" secondContact="" secondEmail="" services="" comments=""/>

    <marker logo="" catchment="" category="Community Victim Support Unit" lng="33.7109566" lat="-13.9756527" orgcategory="Community Based Organization" fax="" web="" email="" tel="" district="Lilongwe" focalnum="265999443580" focaltitle="Distric Social Welfare Officer" focalname="Mrs. J. Nthengwe" address="" name="Njewa" secondperson="" secondContact="" secondEmail="" services="" comments=""/>

    <marker logo="" catchment="" category="Community Victim Support Unit" lng="33.8744011" lat="-14.0788469" orgcategory="Community Based Organization" fax="" web="" email="" tel="" district="Lilongwe" focalnum="265999443580" focaltitle="Distric Social Welfare Officer" focalname="Mrs. J. Nthengwe" address="" name="Mazengera" secondperson="" secondContact="" secondEmail="" services="" comments=""/>

    <marker logo="" catchment="" category="Community Victim Support Unit" lng="33.7889977" lat="-14.0963917" orgcategory="Community Based Organization" fax="" web="" email="" tel="" district="Lilongwe" focalnum="265999443580" focaltitle="Distric Social Welfare Officer" focalname="Mrs. J. Nthengwe" address="" name="Chiseka" secondperson="" secondContact="" secondEmail="" services="" comments=""/>

    <marker logo="" catchment="" category="Community Victim Support Unit" lng="33.6721840" lat="-13.9589949" orgcategory="Community Based Organization" fax="" web="" email="" tel="" district="Lilongwe" focalnum="265999443580" focaltitle="Distric Social Welfare Officer" focalname="Mrs. J. Nthengwe" address="" name="Khongoni" secondperson="" secondContact="" secondEmail="" services="" comments=""/>

    <marker logo="" catchment="" category="Community Victim Support Unit" lng="34.1128693" lat="-14.0225620" orgcategory="Community Based Organization" fax="" web="" email="" tel="" district="Lilongwe" focalnum="265999443580" focaltitle="Distric Social Welfare Officer" focalname="Mrs. J. Nthengwe" address="" name="Chitekwere" secondperson="" secondContact="" secondEmail="" services="" comments=""/>

    <marker logo="" catchment="" category="Community Victim Support Unit" lng="33.9323273" lat="-13.8585806" orgcategory="Community Based Organization" fax="" web="" email="" tel="" district="Lilongwe" focalnum="265999443580" focaltitle="Distric Social Welfare Officer" focalname="Mrs. J. Nthengwe" address="" name="Chimutu" secondperson="" secondContact="" secondEmail="" services="" comments=""/>

    <marker logo="" catchment="" category="Community Victim Support Unit" lng="33.7547569" lat="-13.7895298" orgcategory="Community Based Organization" fax="" web="" email="" tel="" district="Lilongwe" focalnum="265999443580" focaltitle="Distric Social Welfare Officer" focalname="Mrs. J. Nthengwe" address="" name="Chitukula" secondperson="" secondContact="" secondEmail="" services="" comments=""/>

    <marker logo="" catchment="" category="Community Victim Support Unit" lng="33.6847649" lat="-13.9548397" orgcategory="Community Based Organization" fax="" web="" email="" tel="" district="Lilongwe" focalnum="265999443580" focaltitle="Distric Social Welfare Officer" focalname="Mrs. J. Nthengwe" address="" name="Kabudula" secondperson="" secondContact="" secondEmail="" services="" comments=""/>

    <marker logo="" catchment="" category="Community Victim Support Unit" lng="33.6435585" lat="-13.9756737" orgcategory="Community Based Organization" fax="" web="" email="" tel="" district="Lilongwe" focalnum="265999443580" focaltitle="Distric Social Welfare Officer" focalname="Mrs. J. Nthengwe" address="" name="Kalolo" secondperson="" secondContact="" secondEmail="" services="" comments=""/>

    <marker logo="" catchment="" category="Community Victim Support Unit" lng="33.8021622" lat="-14.0726871" orgcategory="Community Based Organization" fax="" web="" email="" tel="" district="Lilongwe" focalnum="265999443580" focaltitle="Distric Social Welfare Officer" focalname="Mrs. J. Nthengwe" address="" name="Kalumba" secondperson="" secondContact="" secondEmail="" services="" comments=""/>

    <marker logo="" catchment="" category="Community Victim Support Unit" lng="33.6906815" lat="-14.0845919" orgcategory="Community Based Organization" fax="" web="" email="" tel="" district="Lilongwe" focalnum="265999443580" focaltitle="Distric Social Welfare Officer" focalname="Mrs. J. Nthengwe" address="" name="Malili" secondperson="" secondContact="" secondEmail="" services="" comments=""/>

    <marker logo="" catchment="" category="Community Victim Support Unit" lng="33.7050018" lat="-13.7292967" orgcategory="Community Based Organization" fax="" web="" email="" tel="" district="Lilongwe" focalnum="265999013919" focaltitle="Distric Social Welfare Officer" focalname="Mrs. J. Nthengwe" address="" name="Mtema/Mzumazi" secondperson="" secondContact="" secondEmail="" services="" comments=""/>

    <marker logo="" catchment="" category="Community Victim Support Unit" lng="33.8790245" lat="-14.1232166" orgcategory="Community Based Organization" fax="" web="" email="" tel="" district="Lilongwe" focalnum="265999013919" focaltitle="Distric Social Welfare Officer" focalname="Mrs. J. Nthengwe" address="" name="Kalumbu" secondperson="" secondContact="" secondEmail="" services="" comments=""/>

    <marker logo="" catchment="" category="Community Victim Support Unit" lng="33.8837891" lat="-13.9805050" orgcategory="Community Based Organization" fax="" web="" email="" tel="" district="Lilongwe" focalnum="265999443580" focaltitle="Distric Social Welfare Officer" focalname="Mrs. J. Nthengwe" address="" name="Tsabango" secondperson="" secondContact="" secondEmail="" services="" comments=""/>

    <marker logo="" catchment="" category="Community Victim Support Unit" lng="33.7652550" lat="-14.0430040" orgcategory="Community Based Organization" fax="" web="" email="" tel="" district="Lilongwe" focalnum="265999443580" focaltitle="Distric Social Welfare Officer" focalname="Mrs. J. Nthengwe" address="" name="Chadza" secondperson="" secondContact="" secondEmail="" services="" comments=""/>

    <marker logo="" catchment="" category="Community Victim Support Unit" lng="33.7625961" lat="-14.2113466" orgcategory="Community Based Organization" fax="" web="" email="" tel="" district="Lilongwe" focalnum="265999013919" focaltitle="Distric Social Welfare Officer" focalname="Mrs. J. Nthengwe" address="" name="Masula" secondperson="" secondContact="" secondEmail="" services="" comments=""/>

    <marker logo="" catchment="" category="Community Victim Support Unit" lng="33.6986084" lat="-14.1799355" orgcategory="Community Based Organization" fax="" web="" email="" tel="" district="Lilongwe" focalnum="265999443580" focaltitle="Distric Social Welfare Officer" focalname="Mrs. J. Nthengwe" address="" name="Masumbankhunda" secondperson="" secondContact="" secondEmail="" services="" comments=""/>

    <marker logo="" catchment="" category="Community Victim Support Unit" lng="33.7244873" lat="-13.7488899" orgcategory="Community Based Organization" fax="" web="" email="" tel="" district="Lilongwe" focalnum="265999443580" focaltitle="Distric Social Welfare Officer" focalname="Mrs. J. Nthengwe" address="" name="M'bang'ombe" secondperson="" secondContact="" secondEmail="" services="" comments=""/>

    <marker logo="" catchment="" category="Community Victim Support Unit" lng="35.3160133" lat="-15.6933661" orgcategory="Community Based Organization" fax="" web="" email="maulidimike@yahoo.co.uk" tel="0 888 538 653/ 0 999 918 445" district="Chiradzulu" focalnum="265999918445" focaltitle="District Social Welfare Officer" focalname="Michael Maulidi" address="" name="Kadewere" secondperson="" secondContact="" secondEmail="" services="" comments=""/>

    <marker logo="" catchment="" category="Community Victim Support Unit" lng="35.3183746" lat="-15.6874104" orgcategory="Community Based Organization" fax="" web="" email="maulidimike@yahoo.co.uk" tel="0 888 538 653/ 0 999 918 445" district="Chiradzulu" focalnum="265999918445" focaltitle="District Social Welfare Officer" focalname="Michael Maulidi" address="" name="Sandraki" secondperson="" secondContact="" secondEmail="" services="" comments=""/>

    <marker logo="" catchment="" category="Community Victim Support Unit" lng="35.1371994" lat="-15.7376451" orgcategory="Community Based Organization" fax="" web="" email="maulidimike@yahoo.co.uk" tel="0 888 538 653/ 0 999 918 445" district="Chiradzulu" focalnum="265999918445" focaltitle="District Social Welfare Officer" focalname="Michael Maulidi" address="" name="Onga" secondperson="" secondContact="" secondEmail="" services="" comments=""/>

    <marker logo="" catchment="" category="Community Victim Support Unit" lng="35.3189087" lat="-15.6793528" orgcategory="Community Based Organization" fax="" web="" email="maulidimike@yahoo.co.uk" tel="0 888 538 653/ 0 999 918 445" district="Chiradzulu" focalnum="265999918445" focaltitle="District Social Welfare Officer" focalname="Michael Maulidi" address="" name="Ntchema" secondperson="" secondContact="" secondEmail="" services="" comments=""/>

    <marker logo="" catchment="" category="Community Victim Support Unit" lng="35.3235245" lat="-15.7259750" orgcategory="Community Based Organization" fax="" web="" email="maulidimike@yahoo.co.uk" tel="0 888 538 653/ 0 999 918 445" district="Chiradzulu" focalnum="265999918445" focaltitle="District Social Welfare Officer" focalname="Michael Maulidi" address="" name="Mpunga" secondperson="" secondContact="" secondEmail="" services="" comments=""/>

    <marker logo="" catchment="" category="Community Victim Support Unit" lng="35.1340103" lat="-15.6813984" orgcategory="Community Based Organization" fax="" web="" email="maulidimike@yahoo.co.uk" tel="0 888 538 653/ 0 999 918 445" district="Chiradzulu" focalnum="265999918445" focaltitle="District Social Welfare Officer" focalname="Michael Maulidi" address="" name="Chitera" secondperson="" secondContact="" secondEmail="" services="" comments=""/>

    <marker logo="" catchment="" category="Community Victim Support Unit" lng="35.1292877" lat="-15.7991819" orgcategory="Community Based Organization" fax="" web="" email="maulidimike@yahoo.co.uk" tel="0 888 538 653/ 0 999 918 445" district="Chiradzulu" focalnum="265999918445" focaltitle="District Social Welfare Officer" focalname="Michael Maulidi" address="" name="Maoni" secondperson="" secondContact="" secondEmail="" services="" comments=""/>

    <marker logo="" catchment="" category="Community Victim Support Unit" lng="35.1508789" lat="-15.8385944" orgcategory="Community Based Organization" fax="" web="" email="maulidimike@yahoo.co.uk" tel="0 888 538 653/ 0 999 918 445" district="Chiradzulu" focalnum="265999918445" focaltitle="District Social Welfare Officer" focalname="Michael Maulidi" address="" name="Nkalo" secondperson="" secondContact="" secondEmail="" services="" comments=""/>

    <marker logo="" catchment="" category="Community Victim Support Unit" lng="35.5138702" lat="-16.0294514" orgcategory="Community Based Organization" fax="" web="" email="sawiche@yahoo.com" tel="0 999 429 084/ 0 888 845 884" district="Mulanje" focalnum="265888845884" focaltitle="District Social Welfare Officer" focalname="Mr. Robert Sawiche " address="" name="Milonde (Mbuka)" secondperson="" secondContact="" secondEmail="" services="" comments=""/>

    <marker logo="" catchment="" category="Community Victim Support Unit" lng="35.4005547" lat="-15.9844599" orgcategory="Community Based Organization" fax="" web="" email="sawiche@yahoo.com" tel="0 999 429 084/ 0 888 845 884" district="Mulanje" focalnum="265999429084" focaltitle="District Social Welfare Officer" focalname="Mr. Robert Sawiche " address="" name="Nthiramanja" secondperson="" secondContact="" secondEmail="" services="" comments=""/>

    <marker logo="" catchment="" category="Community Victim Support Unit" lng="35.6716118" lat="-16.0771275" orgcategory="Community Based Organization" fax="" web="" email="sawiche@yahoo.com" tel="0 999 429 084/ 0 888 845 884" district="Mulanje" focalnum="265999429084" focaltitle="District Social Welfare Officer" focalname="Mr. Robert Sawiche " address="" name="Njema" secondperson="" secondContact="" secondEmail="" services="" comments=""/>

    <marker logo="" catchment="" category="Community Victim Support Unit" lng="35.3628540" lat="-15.9226141" orgcategory="Community Based Organization" fax="" web="" email="sawiche@yahoo.com" tel="0 999 429 084/ 0 888 845 884" district="Mulanje" focalnum="265888845884" focaltitle="District Social Welfare Officer" focalname="Mr. Robert Sawiche " address="" name="Juma(Mkatasi)" secondperson="" secondContact="" secondEmail="" services="" comments=""/>

    <marker logo="" catchment="" category="Community Victim Support Unit" lng="35.4910431" lat="-16.0120239" orgcategory="Community Based Organization" fax="" web="" email="sawiche@yahoo.com" tel="0 999 429 084/ 0 888 845 884" district="Mulanje" focalnum="265888845884" focaltitle="District Social Welfare Officer" focalname="Mr. Robert Sawiche " address="" name="Chikumbu" secondperson="" secondContact="" secondEmail="" services="" comments=""/>

    <marker logo="" catchment="" category="Community Victim Support Unit" lng="35.4809799" lat="-15.9354067" orgcategory="Community Based Organization" fax="" web="" email="sawiche@yahoo.com" tel="0 999 429 084/ 0 888 845 884" district="Mulanje" focalnum="265999429084" focaltitle="District Social Welfare Officer" focalname="Mr. Robert Sawiche " address="" name="Mkanda" secondperson="" secondContact="" secondEmail="" services="" comments=""/>

    <marker logo="" catchment="" category="Community Victim Support Unit" lng="35.0483246" lat="-15.8426189" orgcategory="Community Based Organization" fax="" web="" email="trophinalimbani@yahoo.co.uk" tel="" district="Blantyre" focalnum="265999 691 162" focaltitle="District Social Welfare Officer" focalname="Mrs. Trophina Limbani" address="" name="Somba" secondperson="" secondContact="" secondEmail="" services="" comments=""/>
    <!--
    <marker logo="" catchment="" category="Community Victim Support Unit" lng="35.9652443" lat="-15.6797037" orgcategory="Community Based Organization" fax="" web="" email="trophinalimbani@yahoo.co.uk" tel="" district="Blantyre" focalnum="0 999 691 162" focaltitle="District Social Welfare Officer" focalname="Mrs. Trophina Limbani" address="" name="Kuntaja" secondperson="" secondContact="" secondEmail="" services="" comments=""/>
    -->
    <marker logo="" catchment="" category="Community Victim Support Unit" lng="35.8672676" lat="-15.6718330" orgcategory="Community Based Organization" fax="" web="" email="trophinalimbani@yahoo.co.uk" tel="" district="Blantyre" focalnum="265999691162" focaltitle="District Social Welfare Officer" focalname="Mrs. Trophina Limbani" address="" name="Kunthembwe" secondperson="" secondContact="" secondEmail="" services="" comments=""/>

    <marker logo="" catchment="" category="Community Victim Support Unit" lng="34.8879547" lat="-15.6671638" orgcategory="Community Based Organization" fax="" web="" email="trophinalimbani@yahoo.co.uk" tel="" district="Blantyre" focalnum="265999691162" focaltitle="District Social Welfare Officer" focalname="Mrs. Trophina Limbani" address="" name="Chigaru" secondperson="" secondContact="" secondEmail="" services="" comments=""/>

    <marker logo="" catchment="" category="Community Victim Support Unit" lng="34.8491592" lat="-15.6430931" orgcategory="Community Based Organization" fax="" web="" email="trophinalimbani@yahoo.co.uk" tel="" district="Blantyre" focalnum="265999691162" focaltitle="District Social Welfare Officer" focalname="Mrs. Trophina Limbani" address="" name="Lundu" secondperson="" secondContact="" secondEmail="" services="" comments=""/>

    <marker logo="" catchment="" category="Community Victim Support Unit" lng="35.0387802" lat="-15.8503790" orgcategory="Community Based Organization" fax="" web="" email="trophinalimbani@yahoo.co.uk" tel="" district="Blantyre" focalnum="265999691162" focaltitle="District Social Welfare Officer" focalname="Mrs. Trophina Limbani" address="" name="Kapeni" secondperson="" secondContact="" secondEmail="" services="" comments=""/>

    <marker logo="" catchment="" category="Community Victim Support Unit" lng="35.0261192" lat="-15.7866077" orgcategory="Community Based Organization" fax="" web="" email="trophinalimbani@yahoo.co.uk" tel="" district="Blantyre" focalnum="265999691162" focaltitle="District Social Welfare Officer" focalname="Mrs. Trophina Limbani" address="" name="Makata" secondperson="" secondContact="" secondEmail="" services="" comments=""/>

    <marker logo="" catchment="" category="Community Victim Support Unit" lng="35.0539093" lat="-15.7303543" orgcategory="Community Based Organization" fax="" web="" email="trophinalimbani@yahoo.co.uk" tel="" district="Blantyre" focalnum="265999691162" focaltitle="District Social Welfare Officer" focalname="Mrs. Trophina Limbani" address="" name="Machinjiri" secondperson="" secondContact="" secondEmail="" services="" comments=""/>

    <marker logo="" catchment="" category="Community Victim Support Unit" lng="35.2776413" lat="-16.3337135" orgcategory="Community Based Organization" fax="" web="" email="elizamlato@yahoo.com" tel="" district="Thyolo" focalnum="265881206899" focaltitle="District Social Welfare Officer" focalname="Ms. Elizabeth Mlato" address="" name="Nsabwe" secondperson="" secondContact="" secondEmail="" services="" comments=""/>

    <marker logo="" catchment="" category="Community Victim Support Unit" lng="35.0986176" lat="-16.4672146" orgcategory="Community Based Organization" fax="" web="" email="elizamlato@yahoo.com" tel="" district="Thyolo" focalnum="265881206899" focaltitle="District Social Welfare Officer" focalname="Ms. Elizabeth Mlato" address="" name="Thukuta" secondperson="" secondContact="" secondEmail="" services="" comments=""/>

    <marker logo="" catchment="" category="Community Victim Support Unit" lng="35.1334572" lat="-16.2180786" orgcategory="Community Based Organization" fax="" web="" email="elizamlato@yahoo.com" tel="" district="Thyolo" focalnum="265881206899" focaltitle="District Social Welfare Officer" focalname="Ms. Elizabeth Mlato" address="" name="Changata" secondperson="" secondContact="" secondEmail="" services="" comments=""/>

    <marker logo="" catchment="" category="Community Victim Support Unit" lng="35.1963959" lat="-16.0710773" orgcategory="Community Based Organization" fax="" web="" email="elizamlato@yahoo.com" tel="" district="Thyolo" focalnum="265881206899" focaltitle="District Social Welfare Officer" focalname="Ms. Elizabeth Mlato" address="" name="Kapichi" secondperson="" secondContact="" secondEmail="" services="" comments=""/>

    <marker logo="" catchment="" category="Community Victim Support Unit" lng="35.1446838" lat="-16.0675373" orgcategory="Community Based Organization" fax="" web="" email="elizamlato@yahoo.com" tel="" district="Thyolo" focalnum="265881206899" focaltitle="District Social Welfare Officer" focalname="Ms. Elizabeth Mlato" address="" name="Nchilamwera" secondperson="" secondContact="" secondEmail="" services="" comments=""/>

    <marker logo="" catchment="" category="Community Victim Support Unit" lng="35.1966553" lat="-15.9338112" orgcategory="Community Based Organization" fax="" web="" email="elizamlato@yahoo.com" tel="" district="Thyolo" focalnum="265881206899" focaltitle="District Social Welfare Officer" focalname="Ms. Elizabeth Mlato" address="" name="Chimaliro" secondperson="" secondContact="" secondEmail="" services="" comments=""/>

    <marker logo="" catchment="" category="Community Victim Support Unit" lng="35.0547752" lat="-15.9366779" orgcategory="Community Based Organization" fax="" web="" email="elizamlato@yahoo.com" tel="" district="Thyolo" focalnum="265881206899" focaltitle="District Social Welfare Officer" focalname="Ms. Elizabeth Mlato" address="" name="Bvumbwe" secondperson="" secondContact="" secondEmail="" services="" comments=""/>

    <marker logo="" catchment="" category="Community Victim Support Unit" lng="35.5538750" lat="-15.9727411" orgcategory="Community Based Organization" fax="" web="" email="elizamlato@yahoo.com" tel="" district="Thyolo" focalnum="265881206899" focaltitle="District Social Welfare Officer" focalname="Ms. Elizabeth Mlato" address="" name="Thomas" secondperson="" secondContact="" secondEmail="" services="" comments=""/>

    <marker logo="" catchment="" category="Community Victim Support Unit" lng="35.0232773" lat="-16.0208836" orgcategory="Community Based Organization" fax="" web="" email="elizamlato@yahoo.com" tel="" district="Thyolo" focalnum="265881206899" focaltitle="District Social Welfare Officer" focalname="Ms. Elizabeth Mlato" address="" name="Mphuka" secondperson="" secondContact="" secondEmail="" services="" comments=""/>

    <marker logo="" catchment="" category="Community Victim Support Unit" lng="35.2504044" lat="-16.9130363" orgcategory="Community Based Organization" fax="" web="" email="nsanjedswo@gmail.com/ hmafuleka@yahoo.co.uk" tel="" district="Nsanje" focalnum="265888668966" focaltitle="District Social Welfare Officer" focalname="Mrs. Hellen Simwaka" address="" name="Mloro" secondperson="" secondContact="" secondEmail="" services="" comments=""/>

    <marker logo="" catchment="" category="Community Victim Support Unit" lng="35.2505074" lat="-16.9186687" orgcategory="Community Based Organization" fax="" web="" email="nsanjedswo@gmail.com/ hmafuleka@yahoo.co.uk" tel="" district="Nsanje" focalnum="265888668966" focaltitle="District Social Welfare Officer" focalname="Mrs. Hellen Simwaka" address="" name="Tengani" secondperson="" secondContact="" secondEmail="" services="" comments=""/>

    <marker logo="" catchment="" category="Community Victim Support Unit" lng="35.2527657" lat="-16.9237919" orgcategory="Community Based Organization" fax="" web="" email="nsanjedswo@gmail.com/ hmafuleka@yahoo.co.uk" tel="" district="Nsanje" focalnum="265888668966" focaltitle="District Social Welfare Officer" focalname="Mrs. Hellen Simwaka" address="" name="Chimombo" secondperson="" secondContact="" secondEmail="" services="" comments=""/>

    <marker logo="" catchment="" category="Community Victim Support Unit" lng="35.2536469" lat="-16.9185810" orgcategory="Community Based Organization" fax="" web="" email="nsanjedswo@gmail.com/ hmafuleka@yahoo.co.uk" tel="" district="Nsanje" focalnum="265888668966" num=" 0 999 192 616" focaltitle="District Social Welfare Officer" focalname="Mrs. Hellen Simwaka" address="" name="Ndamera" secondperson="" secondContact="" secondEmail="" services="" comments=""/>

    <marker logo="" catchment="" category="Community Victim Support Unit" lng="35.2491188" lat="-16.9157276" orgcategory="Community Based Organization" fax="" web="" email="nsanjedswo@gmail.com/ hmafuleka@yahoo.co.uk" tel="" district="Nsanje" focalnum="265888668966" num=" 0 999 192 616" focaltitle="District Social Welfare Officer" focalname="Mrs. Hellen Simwaka" address="" name="Nyachikadza" secondperson="" secondContact="" secondEmail="" services="" comments=""/>

    <marker logo="" catchment="" category="Community Victim Support Unit" lng="35.2533035" lat="-16.9218254" orgcategory="Community Based Organization" fax="" web="" email="nsanjedswo@gmail.com/ hmafuleka@yahoo.co.uk" tel="" district="Nsanje" focalnum="265888668966" num ="0 999 192 616" focaltitle="District Social Welfare Officer" focalname="Mrs. Hellen Simwaka" address="" name="Malemia" secondperson="" secondContact="" secondEmail="" services="" comments=""/>

    <marker logo="" catchment="" category="Community Victim Support Unit" lng="35.2537766" lat="-16.9248638" orgcategory="Community Based Organization" fax="" web="" email="nsanjedswo@gmail.com/ hmafuleka@yahoo.co.uk" tel="" district="Nsanje" focalnum="265888668966" num=" 0 999 192 616" focaltitle="District Social Welfare Officer" focalname="Mrs. Hellen Simwaka" address="" name="Ngabu" secondperson="" secondContact="" secondEmail="" services="" comments=""/>

    <marker logo="" catchment="" category="Community Victim Support Unit" lng="35.2552147" lat="-16.9256439" orgcategory="Community Based Organization" fax="" web="" email="nsanjedswo@gmail.com/ hmafuleka@yahoo.co.uk" tel="" district="Nsanje" focalnum="265888668966" num=" 0 999 192 616" focaltitle="District Social Welfare Officer" focalname="Mrs. Hellen Simwaka" address="" name="Mbenje" secondperson="" secondContact="" secondEmail="" services="" comments=""/>

    <marker logo="" catchment="" category="Community Victim Support Unit" lng="35.2551270" lat="-16.9246788" orgcategory="Community Based Organization" fax="" web="" email="nsanjedswo@gmail.com/ hmafuleka@yahoo.co.uk" tel="" district="Nsanje" focalnum="265888668966" num=" 0 999 192 616" focaltitle="District Social Welfare Officer" focalname="Mrs. Hellen Simwaka" address="" name="Makoko" secondperson="" secondContact="" secondEmail="" services="" comments=""/>

    <marker logo="" catchment="" category="One Stop Centre" lng="33.9111481" lat="-9.9551563" orgcategory="Malawi Government Dept/Agency" fax="" web="" email="" tel="" district="Karonga" focalnum="265888874158" focaltitle="One Stop Centre Coordinator" focalname="Ruth Ngwalo " address="" name="Karonga District Hospital One Stop Centre" secondperson="" secondContact="" secondEmail="" services="" comments=""/>


    <marker logo="" catchment="" category="One Stop Centre" lng="33.785888" lat="-13.976867" orgcategory="Malawi Government Dept/Agency" fax="" web="" email="" tel="" district="Lilongwe" focalnum="" focaltitle="One Stop Centre Coordinator" focalname="Dr Mmangitsa " address="" name="Kamuzu Central Hospital One Stop Centre" secondperson="" secondContact="" secondEmail="" services="" comments=""/>

    <marker logo="" catchment="" category="One Stop Centre" lng="33.2662888" lat="-9.7018871" orgcategory="Malawi Government Dept/Agency" fax="" web="" email="kamnyanyadep@yahoo.com" tel="" district="Chitipa" focalnum="265884388582" focaltitle="OSC Coordinator Chief Clinical Officer " focalname="Dexter Kamnyanya" address="" name="Chitipa District Hospital One Stop Centre" secondperson="" secondContact="" secondEmail="" services="" comments=""/>

    <marker logo="" catchment="" category="One Stop Centre" lng="33.9346237" lat="-13.6548281" orgcategory="Malawi Government Dept/Agency" fax="" web="" email="" tel="+265 1 282 208" district="Dowa" focalnum="265881608206" focaltitle="OSC Coordinator " focalname="Exvin Chipoya " address="" name="Dowa District Hospital One Stop Centre" secondperson="" secondContact="" secondEmail="" services="" comments=""/>

    <marker logo="" catchment="" category="One Stop Centre" lng="32.8860168" lat="-13.8024883" orgcategory="Malawi Government Dept/Agency" fax="" web="" email="stenskalipinde@gmail.com" tel="" district="Mchinji" focalnum="0888109662" focaltitle="OSC Coordinator" focalname="Stens Kalipinde" address="" name="Mchinji District Hospital One Stop Centre" secondperson="" secondContact="" secondEmail="" services="" comments=""/>

    <marker logo="" catchment="" category="One Stop Centre" lng="34.3358917" lat="-14.3859034" orgcategory="Malawi Government Dept/Agency" fax="" web="" email="" tel="" district="Dedza" focalnum="265888306727" focaltitle="OSC Coordinator" focalname="Mr Joseph Thole" address="" name="Dedza District Hospital One Stop Centre" secondperson="" secondContact="" secondEmail="" services="" comments=""/>


    <marker logo="" catchment="" category="One Stop Centre" lng="34.253445" lat="-11.606800" orgcategory="Malawi Government Dept/Agency" fax="" web="" email="zondiwelgbanda@yahoo.co.uk" tel="" district="NkhataBay" focalnum="265888312885" focaltitle="DHO-Focal Point" focalname="Pemphero Mfune" address="" name="NkhataBay District Hospital One Stop Centre" secondperson="" secondContact="" secondEmail="" services="" comments=""/>


    <marker logo="" catchment="" category="One Stop Centre" lng="33.584400" lat="-11.898350" orgcategory="Malawi Government Dept/Agency" fax="" web="" email="dankwacha36@gmail.com" tel="" district="Mzimba" focalnum="265881693499" focaltitle="Clinician-Focal Point" focalname="Dan Louis Kwacha" address="" name="Mzimba District Hospital One Stop Centre" secondperson="" secondContact="" secondEmail="" services="" comments=""/>


    <marker logo="" catchment="" category="One Stop Centre" lng="34.011698" lat="-11.451135" orgcategory="Malawi Government Dept/Agency" fax="" web="" email="" tel="" district="Mzuzu" focalnum="265884466315" focaltitle="Clinician-Focal Point" focalname="Hilda Phiri" address="" name="Mzuzu Hospital One Stop Centre" secondperson="" secondContact="" secondEmail="" services="" comments=""/>


    <marker logo="" catchment="" category="One Stop Centre" lng="35.1756172" lat="-15.7093573" orgcategory="Malawi Government Dept/Agency" fax="" web="" email="ngaladeche@yahoo.co.uk" tel="" district="Chiradzulu" focalnum="265888299249" focaltitle="Clinical Officer" focalname="Charles Ngalande" address="" name="Chiradzulo District Hospital One Stop Centre" secondperson="" secondContact="" secondEmail="" services="" comments=""/>

    <marker logo="" catchment="" category="One Stop Centre" lng="35.313374" lat="-15.399141" orgcategory="Malawi Government Dept/Agency" fax="" web="" email="masekuellen@gmail.com" tel="" district="Zomba" focalnum="265991055640" focaltitle="Clinical Officer" focalname="Singano Juma" address="" name="Zomba General Hospital One Stop Centre" secondperson="" secondContact="" secondEmail="" services="" comments=""/>

    <marker logo="" catchment="" category="One Stop Centre" lng="35.508008" lat="-16.025517" orgcategory="Malawi Government Dept/Agency" fax="" web="" email="morrischalusa@yahoo.com" tel="" district="Mulanje" focalnum="265884177919" focaltitle="Clinical Officer" focalname="Morris Chalusa" address="" name="Mulanje District Hospital One Stop Centre" secondperson="" secondContact="" secondEmail="" services="" comments=""/>


    <marker logo="" catchment="" category="One Stop Centre" lng="35.021673" lat="-15.802384" orgcategory="Malawi Government Dept/Agency" fax="" web="" email="mphatsonawena@gmail.com" tel="" district="Blantyre" focalnum="265999777292" focaltitle="Medical" focalname="Mphatso Mapiri" address="" name="Queen Elizabeth Central Hospital One Stop Centre" secondperson="" secondContact="" secondEmail="" services="" comments=""/>

    <marker logo="" catchment="" category="One Stop Centre" lng="34.8212318" lat="-16.0560417" orgcategory="Malawi Government Dept/Agency" fax="" web="" email="" tel="" district="Chikwawa" focalnum="" focaltitle="" focalname="" address="" name="Chikwawa District One Stop Centre" secondperson="" secondContact="" secondEmail="" services="" comments=""/>

    <marker logo="" catchment="" category="One Stop Centre" lng="35.2260246" lat="-15.0617275" orgcategory="Malawi Government Dept/Agency" fax="" web="" email="charletsumba@yahoo.com" tel="" district="Machinga" focalnum="265881345883" focaltitle="DHO - Focal Point" focalname="Charles Tsumba" address="" name="Machinga District Hospital One Stop Centre" secondperson="" secondContact="" secondEmail="" services="" comments=""/>

    <marker logo="" catchment="" category="One Stop Centre" lng="35.2651367" lat="-14.4810572" orgcategory="Malawi Government Dept/Agency" fax="" web="" email="mkusamaggie@gmail.com" tel="" district="Mangochi" focalnum="265888392899" focaltitle="Health Focal Point" focalname="Magret Nkusa" address="" name="Mangochi District Hospital One Stop Centre" secondperson="" secondContact="" secondEmail="" services="" comments=""/>

    <marker logo="" catchment="" category="One Stop Centre" lng="34.4194260" lat="-13.7610149" orgcategory="Malawi Government Dept/Agency" fax="" web="" email="maida.grace38@gmail.com" tel="" district="Salima" focalnum="265882268790" num=" 0888162318" focaltitle="Focal Point" focalname="Lyton Chithonje" address="" name="Salima District Hospital" secondperson="" secondContact="" secondEmail="" services="" comments=""/>

    <marker logo="" catchment="" category="Community Victim Support Unit" lng="33.3160591" lat="-14.0149002" orgcategory="Community Based Organization" fax="" web="" email="" tel="0 995 520 930" district="Mchinji" focalnum="265 995 520 930 " num=" 0 888 660 012 or 0 999 449 907 " focaltitle="District Social Welfare Officer" focalname="Mr. Rodwell Chunga" address="" name="Mavwere (Msistu)" secondperson="" secondContact="" secondEmail="" services="" comments=""/>

    <marker logo="" catchment="" category="Community Victim Support Unit" lng="33.0347939" lat="-13.8335381" orgcategory="Community Based Organization" fax="" web="" email="" tel="0 995 520 930" district="Mchinji" focalnum="265 995 520 930 " num=" 0 888 660 012 or 0 999 449 907 " focaltitle="District Social Welfare Officer" focalname="Mr. Rodwell Chunga" address="" name="Mlonyeni" secondperson="" secondContact="" secondEmail="" services="" comments=""/>

    <marker logo="" catchment="" category="Community Victim Support Unit" lng="33.0802536" lat="-13.6238413" orgcategory="Community Based Organization" fax="" web="" email="" tel="0 995 520 930" district="Mchinji" focalnum="265 995 520 930  " num ="or 0 888 660 012 or 0 999 449 907 " focaltitle="District Social Welfare Officer" focalname="Mr. Rodwell Chunga" address="" name="Kapondo" secondperson="" secondContact="" secondEmail="" services="" comments=""/>

    <marker logo="" catchment="" category="Community Victim Support Unit" lng="32.9970284" lat="-13.5058203" orgcategory="Community Based Organization" fax="" web="" email="" tel="0 995 520 930" district="Mchinji" focalnum="265 995 520 930 " num="or 0 888 660 012 or 0 999 449 907 " focaltitle="District Social Welfare Officer" focalname="Mr. Rodwell Chunga" address="" name="Mkanda" secondperson="" secondContact="" secondEmail="" services="" comments=""/>

    <marker logo="" catchment="" category="Community Victim Support Unit" lng="33.0844269" lat="-13.7193737" orgcategory="Community Based Organization" fax="" web="" email="" tel="0 995 520 930" district="Mchinji" focalnum="265 995 520 930 " num="or 0 888 660 012 or 0 999 449 907 " focaltitle="District Social Welfare Officer" focalname="Mr. Rodwell Chunga" address="" name="Mduwa (Mpuwa)" secondperson="" secondContact="" secondEmail="" services="" comments=""/>

    <marker logo="" catchment="" category="Community Victim Support Unit" lng="33.0471611" lat="-13.6868372" orgcategory="Community Based Organization" fax="" web="" email="" tel="0 995 520 930" district="Mchinji" focalnum="265 995 520 930 " num ="or 0 888 660 012 or 0 999 449 907 " focaltitle="District Social Welfare Officer" focalname="Mr. Rodwell Chunga" address="" name="Dambe" secondperson="" secondContact="" secondEmail="" services="" comments=""/>

    <marker logo="" catchment="" category="Community Victim Support Unit" lng="33.0031357" lat="-13.8254538" orgcategory="Community Based Organization" fax="" web="" email="" tel="0 995 520 930" district="Mchinji" focalnum="265 995 520 930 " num ="or 0 888 660 012 or 0 999 449 907 " focaltitle="District Social Welfare Officer" focalname="Mr. Rodwell Chunga" address="" name="Zulu (Mwandala James)" secondperson="" secondContact="" secondEmail="" services="" comments=""/>

    <marker logo="" catchment="" category="Community Victim Support Unit" lng="33.1760406" lat="-13.7967186" orgcategory="Community Based Organization" fax="" web="" email="" tel="0 995 520 930" district="Mchinji" focalnum="265 995 520 930 " num= "or 0 888 660 012 or 0 999 449 907 " focaltitle="District Social Welfare Officer" focalname="Mr. Rodwell Chunga" address="" name="Simphasi" secondperson="" secondContact="" secondEmail="" services="" comments=""/>

    <marker logo="" catchment="" category="Community Victim Support Unit" lng="34.1169167" lat="-14.4094505" orgcategory="Community Based Organization" fax="" web="" email="Kapuchi.benjamin@gmail.com" tel="" district="Dedza" focalnum="" focaltitle="" focalname="Mr. Benjamin Kapuchi" address="" name="Kachere" secondperson="" secondContact="" secondEmail="" services="" comments=""/>

    <marker logo="" catchment="" category="Community Victim Support Unit" lng="34.1230278" lat="-14.1773663" orgcategory="Community Based Organization" fax="" web="" email="Kapuchi.benjamin@gmail.com" tel="" district="Dedza" focalnum="" focaltitle="" focalname="Mr. Benjamin Kapuchi" address="" name="Kaphuka" secondperson="" secondContact="" secondEmail="" services="" comments=""/>

    <marker logo="" catchment="" category="Community Victim Support Unit" lng="34.2404022" lat="-14.0828638" orgcategory="Community Based Organization" fax="" web="" email="Kapuchi.benjamin@gmail.com" tel="" district="Dedza" focalnum="" focaltitle="District Social Welfare Officer" focalname="Mr. Benjamin Kapuchi" address="" name="Tambala" secondperson="" secondContact="" secondEmail="" services="" comments=""/>

    <marker logo="" catchment="" category="Community Victim Support Unit" lng="34.3089943" lat="-14.3426456" orgcategory="Community Based Organization" fax="" web="" email="Kapuchi.benjamin@gmail.com" tel="" district="Dedza" focalnum="" focaltitle="District Social Welfare Officer" focalname="Mr. Benjamin Kapuchi" address="" name="Kasumbu" secondperson="" secondContact="" secondEmail="" services="" comments=""/>

    <marker logo="" catchment="" category="Community Victim Support Unit" lng="34.5219383" lat="-14.2731171" orgcategory="Community Based Organization" fax="" web="" email="Kapuchi.benjamin@gmail.com" tel="" district="Dedza" focalnum="" focaltitle="District Social Welfare Officer" focalname="Mr. Benjamin Kapuchi" address="" name="Kachindamoto" secondperson="" secondContact="" secondEmail="" services="" comments=""/>

    <marker logo="" catchment="" category="Community Victim Support Unit" lng="34.0257530" lat="-14.3051395" orgcategory="Community Based Organization" fax="" web="" email="Kapuchi.benjamin@gmail.com" tel="" district="Dedza" focalnum="" focaltitle="District Social Welfare Officer" focalname="Mr. Benjamin Kapuchi" address="" name="Chilikumwendo" secondperson="" secondContact="" secondEmail="" services="" comments=""/>

    <marker logo="" catchment="" category="Community Victim Support Unit" lng="34.2135620" lat="-14.0922918" orgcategory="Community Based Organization" fax="" web="" email="Kapuchi.benjamin@gmail.com" tel="" district="Dedza" focalnum="" focaltitle="District Social Welfare Officer" focalname="Mr. Benjamin Kapuchi" address="" name="Chauma" secondperson="" secondContact="" secondEmail="" services="" comments=""/>

    <marker logo="" catchment="" category="Community Victim Support Unit" lng="34.3628082" lat="-14.3583202" orgcategory="Community Based Organization" fax="" web="" email="Kapuchi.benjamin@gmail.com" tel="" district="Dedza" focalnum="" focaltitle="District Social Welfare Officer" focalname="Mr. Benjamin Kapuchi" address="" name="Kamenyagwaza" secondperson="" secondContact="" secondEmail="" services="" comments=""/>

    <marker logo="" catchment="" category="Community Victim Support Unit" lng="33.9953003" lat="-13.2888594" orgcategory="Community Based Organization" fax="" web="" email="derickmwenda@gmail.com" tel="" district="Nkhotakota" focalnum="265 999 658 228" focaltitle="District Social Welfare Officer" focalname="Mr. D. Mwenda" address="" name="Mwansambo" secondperson="" secondContact="" secondEmail="" services="" comments=""/>

    <marker logo="" catchment="" category="Community Victim Support Unit" lng="34.2844810" lat="-13.5264149" orgcategory="Community Based Organization" fax="" web="" email="derickmwenda@gmail.com" tel="" district="Nkhotakota" focalnum="265 999 658 228" focaltitle="District Social Welfare Officer" focalname="Mr. D. Mwenda" address="" name="Mwadzama (Mtosa)" secondperson="" secondContact="" secondEmail="" services="" comments=""/>

    <marker logo="" catchment="" category="Community Victim Support Unit" lng="34.3043060" lat="-13.0837631" orgcategory="Community Based Organization" fax="" web="" email="derickmwenda@gmail.com" tel="" district="Nkhotakota" focalnum="265 999 658 228" focaltitle="District Social Welfare Officer" focalname="Mr. D. Mwenda" address="" name="Malengachanzi (Kalimanjira)" secondperson="" secondContact="" secondEmail="" services="" comments=""/>

    <marker logo="" catchment="" category="Community Victim Support Unit" lng="34.2620125" lat="-13.0682116" orgcategory="Community Based Organization" fax="" web="" email="derickmwenda@gmail.com" tel="" district="Nkhotakota" focalnum="265 999 658 228" focaltitle="District Social Welfare Officer" focalname="Mr. D. Mwenda" address="" name="Malengachanzi (Mpamantha)" secondperson="" secondContact="" secondEmail="" services="" comments=""/>

    <marker logo="" catchment="" category="Community Victim Support Unit" lng="34.2098656" lat="-12.8005552" orgcategory="Community Based Organization" fax="" web="" email="derickmwenda@gmail.com" tel="" district="Nkhotakota" focalnum="265 999 658 228" focaltitle="District Social Welfare Officer" focalname="Mr. D. Mwenda" address="" name="Mphonde (Mpondagaga)" secondperson="" secondContact="" secondEmail="" services="" comments=""/>

    <marker logo="" catchment="" category="Community Victim Support Unit" lng="34.1850014" lat="-12.7519741" orgcategory="Community Based Organization" fax="" web="" email="derickmwenda@gmail.com" tel="" district="Nkhotakota" focalnum="265 999 658 228" focaltitle="District Social Welfare Officer" focalname="Mr. D. Mwenda" address="" name="Kanyenda (Katimbira)" secondperson="" secondContact="" secondEmail="" services="" comments=""/>

    <marker logo="" catchment="" category="Community Victim Support Unit" lng="34.0517197" lat="-12.4462614" orgcategory="Community Based Organization" fax="" web="" email="derickmwenda@gmail.com" tel="" district="Nkhotakota" focalnum="265 999 658 228" focaltitle="District Social Welfare Officer" focalname="Mr. D. Mwenda" address="" name="Kanyenda (Kaongozi)" secondperson="" secondContact="" secondEmail="" services="" comments=""/>

    <marker logo="" catchment="" category="Community Victim Support Unit" lng="34.0300293" lat="-12.3077221" orgcategory="Community Based Organization" fax="" web="" email="derickmwenda@gmail.com" tel="" district="Nkhotakota" focalnum="265 999 658 228" focaltitle="District Social Welfare Officer" focalname="Mr. D. Mwenda" address="" name="Kafuzira (Kasitu)" secondperson="" secondContact="" secondEmail="" services="" comments=""/>

    <marker logo="" catchment="" category="Community Victim Support Unit" lng="34.4291458" lat="-13.7994699" orgcategory="Community Based Organization" fax="" web="" email="feddambwana@gmail.com" tel="" district="Salima" focalnum="265 992 273 268 or 0888359860" focaltitle="District Social Welfare Officer" focalname="Ms. Fedda Mbwana" address="" name="Kambwiri" secondperson="" secondContact="" secondEmail="" services="" comments=""/>

    <marker logo="" catchment="" category="Community Victim Support Unit" lng="34.3788910" lat="-13.5328798" orgcategory="Community Based Organization" fax="" web="" email="feddambwana@gmail.com" tel="" district="Salima" focalnum="265 992 273 268 or 0888359860" focaltitle="District Social Welfare Officer" focalname="Ms. Fedda Mbwana" address="" name="Msosa" secondperson="" secondContact="" secondEmail="" services="" comments=""/>

    <marker logo="" catchment="" category="Community Victim Support Unit" lng="34.5014305" lat="-13.8090448" orgcategory="Community Based Organization" fax="" web="" email="feddambwana@gmail.com" tel="" district="Salima" focalnum="265992 273 268 or 0888359860" focaltitle="District Social Welfare Officer" focalname="Ms. Fedda Mbwana" address="" name="Pemba" secondperson="" secondContact="" secondEmail="" services="" comments=""/>

    <marker logo="" catchment="" category="Community Victim Support Unit" lng="34.4487839" lat="-13.7690964" orgcategory="Community Based Organization" fax="" web="" email="feddambwana@gmail.com" tel="" district="Salima" focalnum="265 992 273 268 or 0888359860" focaltitle="District Social Welfare Officer" focalname="Ms. Fedda Mbwana" address="" name="Kalonga" secondperson="" secondContact="" secondEmail="" services="" comments=""/>

    <marker logo="" catchment="" category="Community Victim Support Unit" lng="34.5251694" lat="-13.6369791" orgcategory="Community Based Organization" fax="" web="" email="feddambwana@gmail.com" tel="" district="Salima" focalnum="265 992 273 268 or 0888359860" focaltitle="District Social Welfare Officer" focalname="Ms. Fedda Mbwana" address="" name="Kulunda" secondperson="" secondContact="" secondEmail="" services="" comments=""/>

    <marker logo="" catchment="" category="Community Victim Support Unit" lng="34.4668427" lat="-13.9868450" orgcategory="Community Based Organization" fax="" web="" email="feddambwana@gmail.com" tel="" district="Salima" focalnum="265 992 273 268 or 0888359860" focaltitle="District Social Welfare Officer" focalname="Ms. Fedda Mbwana" address="" name="Ndindi (Mchoka)" secondperson="" secondContact="" secondEmail="" services="" comments=""/>

    <marker logo="" catchment="" category="Community Victim Support Unit" lng="34.5597801" lat="-13.8479757" orgcategory="Community Based Organization" fax="" web="" email="feddambwana@gmail.com" tel="" district="Salima" focalnum="265 992 273 268 or 0888359860" focaltitle="District Social Welfare Officer" focalname="Ms. Fedda Mbwana" address="" name="Maganga" secondperson="" secondContact="" secondEmail="" services="" comments=""/>

    <marker logo="" catchment="" category="Community Victim Support Unit" lng="34.5115356" lat="-14.0682688" orgcategory="Community Based Organization" fax="" web="" email="feddambwana@gmail.com" tel="" district="Salima" focalnum="265 992 273 268 or 0888359860" focaltitle="District Social Welfare Officer" focalname="Ms. Fedda Mbwana" address="" name="Kambalame" secondperson="" secondContact="" secondEmail="" services="" comments=""/>

    <marker logo="" catchment="" category="Community Victim Support Unit" lng="34.3105545" lat="-13.5968542" orgcategory="Community Based Organization" fax="" web="" email="feddambwana@gmail.com" tel="" district="Salima" focalnum="265 992 273 268 or 0888359860" focaltitle="District Social Welfare Officer" focalname="Ms. Fedda Mbwana" address="" name="Khombedza" secondperson="" secondContact="" secondEmail="" services="" comments=""/>

    <marker logo="" catchment="" category="Community Victim Support Unit" lng="34.2771416" lat="-13.5198822" orgcategory="Community Based Organization" fax="" web="" email="feddambwana@gmail.com" tel="" district="Salima" focalnum="265 992 273 268 or 0888359860" focaltitle="District Social Welfare Officer" focalname="Ms. Fedda Mbwana" address="" name="Mwanza (Tiyanjane CBO)" secondperson="" secondContact="" secondEmail="" services="" comments=""/>

    <marker logo="" catchment="" category="Community Victim Support Unit" lng="34.2154312" lat="-11.6612072" orgcategory="Community Based Organization" fax="" web="" email="licksonngambi@yahoo.com" tel="" district="Nkhata-Bay" focalnum="" focaltitle="District Social Welfare Officer" focalname="Mr. Lickson Ng?ambi" address="" name="Kabuduli" secondperson="" secondContact="" secondEmail="" services="" comments=""/>

    <marker logo="" catchment="" category="Community Victim Support Unit" lng="34.2973099" lat="-11.6086197" orgcategory="Community Based Organization" fax="" web="" email="licksonngambi@yahoo.com" tel="" district="Nkhata-Bay" focalnum="" focaltitle="District Social Welfare Officer" focalname="Mr. Lickson Ng?ambi" address="" name="Mkumbira" secondperson="" secondContact="" secondEmail="" services="" comments=""/>

    <marker logo="" catchment="" category="Community Victim Support Unit" lng="34.2896385" lat="-11.7321968" orgcategory="Community Based Organization" fax="" web="" email="licksonngambi@yahoo.com" tel="" district="Nkhata-Bay" focalnum="" focaltitle="District Social Welfare Officer" focalname="Mr. Lickson Ng?ambi" address="" name="Mankhambira" secondperson="" secondContact="" secondEmail="" services="" comments=""/>

    <marker logo="" catchment="" category="Community Victim Support Unit" lng="34.0524445" lat="-12.0912218" orgcategory="Community Based Organization" fax="" web="" email="licksonngambi@yahoo.com" tel="" district="Nkhata-Bay" focalnum="" focaltitle="District Social Welfare Officer" focalname="Mr. Lickson Ng?ambi" address="" name="Zilakoma" secondperson="" secondContact="" secondEmail="" services="" comments=""/>

    <marker logo="" catchment="" category="Community Victim Support Unit" lng="34.1664696" lat="-11.8436079" orgcategory="Community Based Organization" fax="" web="" email="licksonngambi@yahoo.com" tel="" district="Nkhata-Bay" focalnum="" focaltitle="District Social Welfare Officer" focalname="Mr. Lickson Ng?ambi" address="" name="Malanda" secondperson="" secondContact="" secondEmail="" services="" comments=""/>

    <marker logo="" catchment="" category="Community Victim Support Unit" lng="34.2788391" lat="-11.4748974" orgcategory="Community Based Organization" fax="" web="" email="licksonngambi@yahoo.com" tel="" district="Nkhata-Bay" focalnum="" focaltitle="District Social Welfare Officer" focalname="Mr. Lickson Ng?ambi" address="" name="Mbwana" secondperson="" secondContact="" secondEmail="" services="" comments=""/>

    <marker logo="" catchment="" category="Community Victim Support Unit" lng="34.1897278" lat="-11.5456638" orgcategory="Community Based Organization" fax="" web="" email="licksonngambi@yahoo.com" tel="" district="Nkhata-Bay" focalnum="" focaltitle="District Social Welfare Officer" focalname="Mr. Lickson Ng?ambi" address="" name="Timbiri" secondperson="" secondContact="" secondEmail="" services="" comments=""/>

    <marker logo="" catchment="" category="Community Victim Support Unit" lng="34.1101227" lat="-11.9349470" orgcategory="Community Based Organization" fax="" web="" email="licksonngambi@yahoo.com" tel="" district="Nkhata-Bay" focalnum="" focaltitle="District Social Welfare Officer" focalname="Mr. Lickson Ng?ambi" address="" name="Fukamapiri" secondperson="" secondContact="" secondEmail="" services="" comments=""/>

    <marker logo="" catchment="" category="Community Victim Support Unit" lng="34.2771225" lat="-11.4600019" orgcategory="Community Based Organization" fax="" web="" email="licksonngambi@yahoo.com" tel="" district="Nkhata-Bay" focalnum="" focaltitle="District Social Welfare Officer" focalname="Mr. Lickson Ng?ambi" address="" name="Boghoyo" secondperson="" secondContact="" secondEmail="" services="" comments=""/>

    <marker logo="" catchment="" category="Community Victim Support Unit" lng="34.1599464" lat="-11.8805246" orgcategory="Community Based Organization" fax="" web="" email="licksonngambi@yahoo.com" tel="" district="Nkhata-Bay" focalnum="" focaltitle="District Social Welfare Officer" focalname="Mr. Lickson Ng?ambi" address="" name="Malengamzoma" secondperson="" secondContact="" secondEmail="" services="" comments=""/>

    <marker logo="" catchment="" category="Community Victim Support Unit" lng="33.6622963" lat="-10.3959141" orgcategory="Community Based Organization" fax="" web="" email="" tel="" district="Chitipa" focalnum="265999064185" focaltitle="District Social Welfare Officer" focalname="Mrs. J. Luhana" address="" name="Therere" secondperson="" secondContact="" secondEmail="" services="" comments=""/>

    <marker logo="" catchment="" category="Community Victim Support Unit" lng="33.2572517" lat="-9.6448622" orgcategory="Community Based Organization" fax="" web="" email="" tel="" district="Chitipa" focalnum="265999064186" focaltitle="District Social Welfare Officer" focalname="Mrs. J. Luhana" address="" name="Kameme" secondperson="" secondContact="" secondEmail="" services="" comments=""/>

    <marker logo="" catchment="" category="Community Victim Support Unit" lng="33.6631660" lat="-10.2114506" orgcategory="Community Based Organization" fax="" web="" email="" tel="" district="Chitipa" focalnum="265999064187" focaltitle="District Social Welfare Officer" focalname="Mrs. J. Luhana" address="" name="Mahowe" secondperson="" secondContact="" secondEmail="" services="" comments=""/>

    <marker logo="" catchment="" category="Community Victim Support Unit" lng="33.4270515" lat="-9.9782839" orgcategory="Community Based Organization" fax="" web="" email="" tel="" district="Chitipa" focalnum="265999064188" focaltitle="District Social Welfare Officer" focalname="Mrs. J. Luhana" address="" name="Muyimbiri" secondperson="" secondContact="" secondEmail="" services="" comments=""/>

    <marker logo="" catchment="" category="Community Victim Support Unit" lng="33.4281616" lat="-9.9126339" orgcategory="Community Based Organization" fax="" web="" email="" tel="" district="Chitipa" focalnum="265999064189" focaltitle="District Social Welfare Officer" focalname="Mrs. J. Luhana" address="" name="Chendo" secondperson="" secondContact="" secondEmail="" services="" comments=""/>

    <marker logo="" catchment="" category="Community Victim Support Unit" lng="33.2883911" lat="-9.6173439" orgcategory="Community Based Organization" fax="" web="" email="" tel="" district="Chitipa" focalnum="265999064190" focaltitle="District Social Welfare Officer" focalname="Mrs. J. Luhana" address="" name="Nkhangwa" secondperson="" secondContact="" secondEmail="" services="" comments=""/>

    <marker logo="" catchment="" category="Community Victim Support Unit" lng="33.5847702" lat="-9.7226696" orgcategory="Community Based Organization" fax="" web="" email="" tel="" district="Chitipa" focalnum="265999064191" focaltitle="District Social Welfare Officer" focalname="Mrs. J. Luhana" address="" name="Sokola" secondperson="" secondContact="" secondEmail="" services="" comments=""/>

    <marker logo="" catchment="" category="Community Victim Support Unit" lng="33.5845757" lat="-9.6956110" orgcategory="Community Based Organization" fax="" web="" email="" tel="" district="Chitipa" focalnum="265999064192" focaltitle="District Social Welfare Officer" focalname="Mrs. J. Luhana" address="" name="Mtegha" secondperson="" secondContact="" secondEmail="" services="" comments=""/>

    <marker logo="" catchment="" category="Community Victim Support Unit" lng="34.1922798" lat="-10.4609013" orgcategory="Community Based Organization" fax="" web="" email="" tel="" district="Karonga" focalnum="265 999 700 837" focaltitle="District Social Welfare Officer" focalname="Mr. H. Jaji" address="" name="Wasambo" secondperson="" secondContact="" secondEmail="" services="" comments=""/>

    <marker logo="" catchment="" category="Community Victim Support Unit" lng="34.1096725" lat="-10.2343721" orgcategory="Community Based Organization" fax="" web="" email="" tel="" district="Karonga" focalnum="265 999 700 837" focaltitle="District Social Welfare Officer" focalname="Mr. H. Jaji" address="" name="Mwirang'ombe" secondperson="" secondContact="" secondEmail="" services="" comments=""/>

    <marker logo="" catchment="" category="Community Victim Support Unit" lng="33.9108849" lat="-9.9370880" orgcategory="Community Based Organization" fax="" web="" email="" tel="" district="Karonga" focalnum="265 999 700 837" focaltitle="District Social Welfare Officer" focalname="Mr. H. Jaji" address="" name="Mbande" secondperson="" secondContact="" secondEmail="" services="" comments=""/>

    <marker logo="" catchment="" category="Community Victim Support Unit" lng="33.8745003" lat="-9.8122253" orgcategory="Community Based Organization" fax="" web="" email="" tel="" district="Karonga" focalnum="265 999 700 837" focaltitle="District Social Welfare Officer" focalname="Mr. H. Jaji" address="" name="Kilupula" secondperson="" secondContact="" secondEmail="" services="" comments=""/>

    <marker logo="" catchment="" category="Community Victim Support Unit" lng="33.8122215" lat="-9.6521711" orgcategory="Community Based Organization" fax="" web="" email="" tel="" district="Karonga" focalnum="265 999 700 837" focaltitle="District Social Welfare Officer" focalname="Mr. H. Jaji" address="" name="Mwakaboko" secondperson="" secondContact="" secondEmail="" services="" comments=""/>

    <marker logo="" catchment="" category="Community Victim Support Unit" lng="33.9706802" lat="-10.0660143" orgcategory="Community Based Organization" fax="" web="" email="" tel="" district="Karonga" focalnum="265 999 700 837" focaltitle="District Social Welfare Officer" focalname="Mr. H. Jaji" address="" name="Lupembe" secondperson="" secondContact="" secondEmail="" services="" comments=""/>

    <marker logo="" catchment="" category="Community Victim Support Unit" lng="34.9758987" lat="-14.9674702" orgcategory="Community Based Organization" fax="" web="" email="chawinganixon@gmail.com" tel="" district="Balaka" focalnum="265 999 256 419" focaltitle="District Social Welfare Officer" focalname="Mr.Nixon Chawinga" address="" name="Chanthunya" secondperson="" secondContact="" secondEmail="" services="" comments=""/>

    <marker logo="" catchment="" category="Community Victim Support Unit" lng="34.9918900" lat="-14.9665604" orgcategory="Community Based Organization" fax="" web="" email="chawinganixon@gmail.com" tel="" district="Balaka" focalnum="265999 256 419" focaltitle="District Social Welfare Officer" focalname="Mr.Nixon Chawinga" address="" name="Mpilisi" secondperson="" secondContact="" secondEmail="" services="" comments=""/>

    <marker logo="" catchment="" category="Community Victim Support Unit" lng="34.9636116" lat="-14.4342403" orgcategory="Community Based Organization" fax="" web="" email="chawinganixon@gmail.com" tel="" district="Balaka" focalnum="265 999 256 419" focaltitle="District Social Welfare Officer" focalname="Mr.Nixon Chawinga" address="" name="Nkaya" secondperson="" secondContact="" secondEmail="" services="" comments=""/>

    <marker logo="" catchment="" category="Community Victim Support Unit" lng="34.9808311" lat="-14.9263000" orgcategory="Community Based Organization" fax="" web="" email="chawinganixon@gmail.com" tel="" district="Balaka" focalnum="265 999 256 419" focaltitle="District Social Welfare Officer" focalname="Mr.Nixon Chawinga" address="" name="Sawali" secondperson="" secondContact="" secondEmail="" services="" comments=""/>

    <marker logo="" catchment="" category="Community Victim Support Unit" lng="34.9714699" lat="-14.8959999" orgcategory="Community Based Organization" fax="" web="" email="chawinganixon@gmail.com" tel="" district="Balaka" focalnum="265999 256 419" focaltitle="District Social Welfare Officer" focalname="Mr.Nixon Chawinga" address="" name="Amidu" secondperson="" secondContact="" secondEmail="" services="" comments=""/>

    <marker logo="" catchment="" category="Community Victim Support Unit" lng="35.1669807" lat="-14.8406897" orgcategory="Community Based Organization" fax="" web="" email="chawinganixon@gmail.com" tel="" district="Balaka" focalnum="265 999 256 419" focaltitle="District Social Welfare Officer" focalname="Mr.Nixon Chawinga" address="" name="Kalembo" secondperson="" secondContact="" secondEmail="" services="" comments=""/>

    <marker logo="" catchment="" category="Community Victim Support Unit" lng="34.9496918" lat="-14.9058304" orgcategory="Community Based Organization" fax="" web="" email="chawinganixon@gmail.com" tel="" district="Balaka" focalnum="265 999 256 419" focaltitle="District Social Welfare Officer" focalname="Mr.Nixon Chawinga" address="" name="Kachenga" secondperson="" secondContact="" secondEmail="" services="" comments=""/>

    <marker logo="" catchment="" category="Community Victim Support Unit" lng="35.3287544" lat="-15.3887815" orgcategory="Community Based Organization" fax="" web="" email="Kalelojp1@yahoo.com" tel="" district="Zomba" focalnum="0 999 931 029 or 0 881 668 113" focaltitle="" focalname="Mr. Josephy Kalelo" address="" name="Mlumbe" secondperson="" secondContact="" secondEmail="" services="" comments=""/>

    <marker logo="" catchment="" category="Community Victim Support Unit" lng="35.3217659" lat="-10000.0000000" orgcategory="Community Based Organization" fax="" web="" email="Kalelojp1@yahoo.com" tel="" district="Zomba" focalnum="1 999 931 029 or 0 881 668 113" focaltitle="" focalname="Mr. Josephy Kalelo" address="" name="Chikowi" secondperson="" secondContact="" secondEmail="" services="" comments=""/>

    <marker logo="" catchment="" category="Community Victim Support Unit" lng="35.3282852" lat="-15.3813553" orgcategory="Community Based Organization" fax="" web="" email="Kalelojp1@yahoo.com" tel="" district="Zomba" focalnum="2 999 931 029 or 0 881 668 113" focaltitle="" focalname="Mr. Josephy Kalelo" address="" name="Mwambo" secondperson="" secondContact="" secondEmail="" services="" comments=""/>

    <marker logo="" catchment="" category="Community Victim Support Unit" lng="35.4220352" lat="-15.2833481" orgcategory="Community Based Organization" fax="" web="" email="Kalelojp1@yahoo.com" tel="" district="Zomba" focalnum="3 999 931 029 or 0 881 668 113" focaltitle="" focalname="Mr. Josephy Kalelo" address="" name="Kuntumanje" secondperson="" secondContact="" secondEmail="" services="" comments=""/>

    <marker logo="" catchment="" category="Community Victim Support Unit" lng="35.3915863" lat="-15.3135042" orgcategory="Community Based Organization" fax="" web="" email="Kalelojp1@yahoo.com" tel="" district="Zomba" focalnum="4 999 931 029 or 0 881 668 113" focaltitle="" focalname="Mr. Josephy Kalelo" address="" name="Malemia" secondperson="" secondContact="" secondEmail="" services="" comments=""/>

    <marker logo="" catchment="" category="Community Victim Support Unit" lng="35.5871964" lat="-15.3699961" orgcategory="Community Based Organization" fax="" web="" email="Kalelojp1@yahoo.com" tel="" district="Zomba" focalnum="5 999 931 029 or 0 881 668 113" focaltitle="" focalname="Mr. Josephy Kalelo" address="" name="Mkumbira" secondperson="" secondContact="" secondEmail="" services="" comments=""/>

    <marker logo="" catchment="" category="Community Victim Support Unit" lng="35.3674278" lat="-15.3838577" orgcategory="Community Based Organization" fax="" web="" email="Kalelojp1@yahoo.com" tel="" district="Zomba" focalnum="6 999 931 029 or 0 881 668 113" focaltitle="" focalname="Mr. Josephy Kalelo" address="" name="Nkagula" secondperson="" secondContact="" secondEmail="" services="" comments=""/>

    <marker logo="" catchment="" category="Community Victim Support Unit" lng="35.2110863" lat="-15.5471334" orgcategory="Community Based Organization" fax="" web="" email="Kalelojp1@yahoo.com" tel="" district="Zomba" focalnum="7 999 931 029 or 0 881 668 113" focaltitle="" focalname="Mr. Josephy Kalelo" address="" name="Ntholowa" secondperson="" secondContact="" secondEmail="" services="" comments=""/>

    <marker logo="" catchment="" category="Community Victim Support Unit" lng="35.2324333" lat="-15.5355968" orgcategory="Community Based Organization" fax="" web="" email="Kalelojp1@yahoo.com" tel="" district="Zomba" focalnum="8 999 931 029 or 0 881 668 113" focaltitle="" focalname="Mr. Josephy Kalelo" address="" name="Mbiza" secondperson="" secondContact="" secondEmail="" services="" comments=""/>

    <marker logo="" catchment="" category="Community Victim Support Unit" lng="35.4837036" lat="-15.5297670" orgcategory="Community Based Organization" fax="" web="" email="Kalelojp1@yahoo.com" tel="" district="Zomba" focalnum="9 999 931 029 or 0 881 668 113" focaltitle="" focalname="Mr. Josephy Kalelo" address="" name="Ngwwerero" secondperson="" secondContact="" secondEmail="" services="" comments=""/>

    <marker logo="" catchment="" category="Community Victim Support Unit" lng="10000.0000000" lat="-15.3274527" orgcategory="Community Based Organization" fax="" web="" email="Kalelojp1@yahoo.com" tel="" district="Zomba" focalnum="10 999 931 029 or 0 881 668 113" focaltitle="" focalname="Mr. Josephy Kalelo" address="" name="Nkapita" secondperson="" secondContact="" secondEmail="" services="" comments=""/>

    <marker logo="" catchment="" category="Community Victim Support Unit" lng="35.0639496" lat="-15.5294304" orgcategory="Community Based Organization" fax="" web="" email="macleodmphande@gmail.com" tel="" district="Mangochi" focalnum="265 999 342 930" focaltitle="" focalname="Mr. McLeod Mphande" address="" name="Ngatala" secondperson="" secondContact="" secondEmail="" services="" comments=""/>

    <marker logo="" catchment="" category="Community Victim Support Unit" lng="34.8192101" lat="-14.2286482" orgcategory="Community Based Organization" fax="" web="" email="macleodmphande@gmail.com" tel="" district="Mangochi" focalnum="265 999 342 930" focaltitle="" focalname="Mr. McLeod Mphande" address="" name="Malembo" secondperson="" secondContact="" secondEmail="" services="" comments=""/>

    <marker logo="" catchment="" category="Community Victim Support Unit" lng="35.5842285" lat="-14.3697071" orgcategory="Community Based Organization" fax="" web="" email="macleodmphande@gmail.com" tel="" district="Mangochi" focalnum="265 999 342 930" focaltitle="" focalname="Mr. McLeod Mphande" address="" name="Jalasi " secondperson="" secondContact="" secondEmail="" services="" comments=""/>

    <marker logo="" catchment="" category="Community Victim Support Unit" lng="35.4789619" lat="-14.2971048" orgcategory="Community Based Organization" fax="" web="" email="macleodmphande@gmail.com" tel="" district="Mangochi" focalnum="265 999 342 930" focaltitle="" focalname="Mr. McLeod Mphande" address="" name="Katuli " secondperson="" secondContact="" secondEmail="" services="" comments=""/>

    <marker logo="" catchment="" category="Community Victim Support Unit" lng="10000.0000000" lat="-14.3602657" orgcategory="Community Based Organization" fax="" web="" email="macleodmphande@gmail.com" tel="" district="Mangochi" focalnum="265 999 342 930" focaltitle="" focalname="Mr. McLeod Mphande" address="" name="Bwananyambi" secondperson="" secondContact="" secondEmail="" services="" comments=""/>

    <marker logo="" catchment="" category="Community Victim Support Unit" lng="35.2858009" lat="-14.3051519" orgcategory="Community Based Organization" fax="" web="" email="macleodmphande@gmail.com" tel="" district="Mangochi" focalnum="265 999 342 930" focaltitle="" focalname="Mr. McLeod Mphande" address="" name="Chowe"/>

    <marker logo="" catchment="" category="Community Victim Support Unit" lng="35.2555466" lat="-14.4137659" orgcategory="Community Based Organization" fax="" web="" email="macleodmphande@gmail.com" tel="" district="Mangochi" focalnum="265 999 342 930" focaltitle="" focalname="Mr. McLeod Mphande" address="" name="Lungwena" secondperson="" secondContact="" secondEmail="" services="" comments=""/>

    <marker logo="" catchment="" category="Community Victim Support Unit" lng="35.2595787" lat="-14.5049200" orgcategory="Community Based Organization" fax="" web="" email="macleodmphande@gmail.com" tel="" district="Mangochi" focalnum="265 999 342 930" focaltitle="" focalname="Mr. McLeod Mphande" address="" name="Lulanga" secondperson="" secondContact="" secondEmail="" services="" comments=""/>

    <marker logo="" catchment="" category="Community Victim Support Unit" lng="10000.0000000" lat="-14.5045996" orgcategory="Community Based Organization" fax="" web="" email="macleodmphande@gmail.com" tel="" district="Mangochi" focalnum="265 999 342 930" focaltitle="" focalname="Mr. McLeod Mphande" address="" name="Binali" secondperson="" secondContact="" secondEmail="" services="" comments=""/>

    <marker logo="" catchment="" category="Community Victim Support Unit" lng="35.2582016" lat="-14.5088396" orgcategory="Community Based Organization" fax="" web="" email="macleodmphande@gmail.com" tel="" district="Mangochi" focalnum="265 999 342 930" focaltitle="" focalname="Mr. McLeod Mphande" address="" name="Mpita" secondperson="" secondContact="" secondEmail="" services="" comments=""/>

    <marker logo="" catchment="" category="Community Victim Support Unit" lng="34.8997383" lat="-14.5879202" orgcategory="Community Based Organization" fax="" web="" email="macleodmphande@gmail.com" tel="" district="Mangochi" focalnum="265 999 342 930" focaltitle="" focalname="Mr. McLeod Mphande" address="" name="Songa" secondperson="" secondContact="" secondEmail="" services="" comments=""/>

    <marker logo="" catchment="" category="Community Victim Support Unit" lng="35.0349998" lat="-14.5376997" orgcategory="Community Based Organization" fax="" web="" email="macleodmphande@gmail.com" tel="" district="Mangochi" focalnum="265 999 342 930" focaltitle="" focalname="Mr. McLeod Mphande" address="" name="Katema/Namisi" secondperson="" secondContact="" secondEmail="" services="" comments=""/>

    <marker logo="" catchment="" category="Community Victim Support Unit" lng="35.3685188" lat="-15.2312222" orgcategory="Community Based Organization" fax="" web="" email="" tel="" district="Machinga" focalnum="265 995 158 989 " num=" 0 888 142 912" focaltitle="" focalname="Bertha Mijoya" address="" name="Chamba" secondperson="" secondContact="" secondEmail="" services="" comments=""/>

    <marker logo="" catchment="" category="Community Victim Support Unit" lng="35.3918037" lat="-15.2304773" orgcategory="Community Based Organization" fax="" web="" email="" tel="" district="Machinga" focalnum="265 995 158 989 " num=" 0 888 142 912" focaltitle="" focalname="Bertha Mijoya" address="" name="Mposa" secondperson="" secondContact="" secondEmail="" services="" comments=""/>

    <marker logo="" catchment="" category="Community Victim Support Unit" lng="35.2593422" lat="-15.1602373" orgcategory="Community Based Organization" fax="" web="" email="" tel="" district="Machinga" focalnum="265 995 158 989 " num=" 0 888 142 912" focaltitle="" focalname="Bertha Mijoya" address="" name="Mlomba" secondperson="" secondContact="" secondEmail="" services="" comments=""/>

    <marker logo="" catchment="" category="Community Victim Support Unit" lng="35.3387146" lat="-15.2097511" orgcategory="Community Based Organization" fax="" web="" email="" tel="" district="Machinga" focalnum="265 995 158 989 " num=" 0 888 142 912" focaltitle="" focalname="Bertha Mijoya" address="" name="Nkula" secondperson="" secondContact="" secondEmail="" services="" comments=""/>

    <marker logo="" catchment="" category="Community Victim Support Unit" lng="35.2258759" lat="-15.0632877" orgcategory="Community Based Organization" fax="" web="" email="" tel="" district="Machinga" focalnum="265 995 158 989 " num=" 0 888 142 912" focaltitle="" focalname="Bertha Mijoya" address="" name="Liwonde" secondperson="" secondContact="" secondEmail="" services="" comments=""/>

    <marker logo="" catchment="" category="Community Victim Support Unit" lng="35.3158836" lat="-15.1794977" orgcategory="Community Based Organization" fax="" web="" email="" tel="" district="Machinga" focalnum="265 995 158 989 " num=" 0 888 142 912" focaltitle="" focalname="Bertha Mijoya" address="" name="Kawinga" secondperson="" secondContact="" secondEmail="" services="" comments=""/>

    <marker logo="" catchment="" category="Community Victim Support Unit" lng="35.2926025" lat="-15.1728086" orgcategory="Community Based Organization" fax="" web="" email="" tel="" district="Machinga" focalnum="265 995 158 989 " num=" 0 888 142 912" focaltitle="" focalname="Bertha Mijoya" address="" name="Kapoloma" secondperson="" secondContact="" secondEmail="" services="" comments=""/>

    <marker logo="" catchment="" category="Community Victim Support Unit" lng="35.3211212" lat="-15.1674652" orgcategory="Community Based Organization" fax="" web="" email="" tel="" district="Machinga" focalnum="265 995 158 989 " num=" 0 888 142 912" focaltitle="" focalname="Bertha Mijoya" address="" name="Chiwalo" secondperson="" secondContact="" secondEmail="" services="" comments=""/>

    <marker logo="" catchment="" category="Community Victim Support Unit" lng="35.2800713" lat="-15.1902246" orgcategory="Community Based Organization" fax="" web="" email="" tel="" district="Machinga" focalnum="265 995 158 989 " num=" 0 888 142 912" focaltitle="" focalname="Bertha Mijoya" address="" name="Chikweo" secondperson="" secondContact="" secondEmail="" services="" comments=""/>

    <marker logo="" catchment="" category="Community Victim Support Unit" lng="35.2999763" lat="-15.1699934" orgcategory="Community Based Organization" fax="" web="" email="" tel="" district="Machinga" focalnum="265 995 158 989 " num=" 0 888 142 912" focaltitle="" focalname="Bertha Mijoya" address="" name="Ngokwe" secondperson="" secondContact="" secondEmail="" services="" comments=""/>

    <marker logo="" catchment="" category="Community Victim Support Unit" lng="10000.0000000" lat="-15.1890860" orgcategory="Community Based Organization" fax="" web="" email="" tel="" district="Machinga" focalnum="265 995 158 989 " num=" 0 888 142 912" focaltitle="" focalname="Bertha Mijoya" address="" name="Nyambi" secondperson="" secondContact="" secondEmail="" services="" comments=""/>

    <marker logo="" catchment="" category="Community Victim Support Unit" lng="35.3354301" lat="-15.1839294" orgcategory="Community Based Organization" fax="" web="" email="" tel="" district="Machinga" focalnum="265 995 158 989 " num="0 888 142 912" focaltitle="" focalname="Bertha Mijoya" address="" name="Sitola" secondperson="" secondContact="" secondEmail="" services="" comments=""/>

    <marker logo="" catchment="" category="Community Victim Support Unit" lng="35.3114204" lat="-15.1744242" orgcategory="Community Based Organization" fax="" web="" email="" tel="" district="Machinga" focalnum="265 995 158 989 " num=" 0 888 142 912" focaltitle="" focalname="Bertha Mijoya" address="" name="Nkoola" secondperson="" secondContact="" secondEmail="" services="" comments=""/>

    <marker logo="" catchment="" category="Community Victim Support Unit" lng="35.2443886" lat="-15.1193924" orgcategory="Community Based Organization" fax="" web="" email="" tel="" district="Machinga" focalnum="265 995 158 989 " num=" 0 888 142 912" focaltitle="" focalname="Bertha Mijoya" address="" name="Nsanama" secondperson="" secondContact="" secondEmail="" services="" comments=""/>

    <marker logo="" catchment="" category="Community Victim Support Unit" lng="35.3432274" lat="-15.1686459" orgcategory="Community Based Organization" fax="" web="" email="" tel="" district="Machinga" focalnum="265 995 158 989 " num=" 0 888 142 912" focaltitle="" focalname="Bertha Mijoya" address="" name="Mchinguza" secondperson="" secondContact="" secondEmail="" services="" comments=""/>

    <marker logo="" catchment="" category="Community Victim Support Unit" lng="35.3725319" lat="-15.2484064" orgcategory="Community Based Organization" fax="" web="" email="" tel="" district="Machinga" focalnum="265 995 158 989 " num=" 0 888 142 912" focaltitle="" focalname="Bertha Mijoya" address="" name="Mwitiya" secondperson="" secondContact="" secondEmail="" services="" comments=""/>

    <marker logo="" catchment="" category="Community Victim Support Unit" lng="35.4031944" lat="-15.2441273" orgcategory="Community Based Organization" fax="" web="" email="" tel="" district="Machinga" focalnum="265 995 158 989 " num=" 0 888 142 912" focaltitle="" focalname="Bertha Mijoya" address="" name="Mlinde" secondperson="" secondContact="" secondEmail="" services="" comments=""/>

    <marker logo="" catchment="" category="Community Victim Support Unit" lng="33.6744690" lat="-12.7444201" orgcategory="Community Based Organization" fax="" web="" email="Harrisonthindwa@yahoo.com" tel="" district="Kasungu" focalnum="265991621875" focaltitle="" focalname="Mr. Harrison Thindwa" address="" name="Simlemba" secondperson="" secondContact="" secondEmail="" services="" comments=""/>

    <marker logo="" catchment="" category="Community Victim Support Unit" lng="10000.0000000" lat="-12.5782700" orgcategory="Community Based Organization" fax="" web="" email="Harrisonthindwa@yahoo.com" tel="" district="Kasungu" focalnum="265991621875" focaltitle="" focalname="Mr. Harrison Thindwa" address="" name="Kaluluma" secondperson="" secondContact="" secondEmail="" services="" comments=""/>

    <marker logo="" catchment="" category="Community Victim Support Unit" lng="33.3085709" lat="-12.8199501" orgcategory="Community Based Organization" fax="" web="" email="Harrisonthindwa@yahoo.com" tel="" district="Kasungu" focalnum="265991621875" focaltitle="" focalname="Mr. Harrison Thindwa" address="" name="Chulu" secondperson="" secondContact="" secondEmail="" services="" comments=""/>

    <marker logo="" catchment="" category="Community Victim Support Unit" lng="33.8765488" lat="-12.8737392" orgcategory="Community Based Organization" fax="" web="" email="Harrisonthindwa@yahoo.com" tel="" district="Kasungu" focalnum="265991621875" focaltitle="" focalname="Mr. Harrison Thindwa" address="" name="Kapelula" secondperson="" secondContact="" secondEmail="" services="" comments=""/>

    <marker logo="" catchment="" category="Community Victim Support Unit" lng="33.6895866" lat="-12.9906664" orgcategory="Community Based Organization" fax="" web="" email="Harrisonthindwa@yahoo.com" tel="" district="Kasungu" focalnum="265991621875" focaltitle="" focalname="Mr. Harrison Thindwa" address="" name="Wimbe" secondperson="" secondContact="" secondEmail="" services="" comments=""/>

    <marker logo="" catchment="" category="Community Victim Support Unit" lng="33.5198326" lat="-13.3110056" orgcategory="Community Based Organization" fax="" web="" email="Harrisonthindwa@yahoo.com" tel="" district="Kasungu" focalnum="265991621875" focaltitle="" focalname="Mr. Harrison Thindwa" address="" name="Njobwa" secondperson="" secondContact="" secondEmail="" services="" comments=""/>

    <marker logo="" catchment="" category="Community Victim Support Unit" lng="33.3908310" lat="-13.4382639" orgcategory="Community Based Organization" fax="" web="" email="Harrisonthindwa@yahoo.com" tel="" district="Kasungu" focalnum="265991621875" focaltitle="" focalname="Mr. Harrison Thindwa" address="" name="Santhe" secondperson="" secondContact="" secondEmail="" services="" comments=""/>

    <marker logo="" catchment="" category="Community Victim Support Unit" lng="33.3409996" lat="-13.2968903" orgcategory="Community Based Organization" fax="" web="" email="Harrisonthindwa@yahoo.com" tel="" district="Kasungu" focalnum="265991621875" focaltitle="" focalname="Mr. Harrison Thindwa" address="" name="Kawamba" secondperson="" secondContact="" secondEmail="" services="" comments=""/>

    <marker logo="" catchment="" category="Community Victim Support Unit" lng="33.4552689" lat="-13.1029606" orgcategory="Community Based Organization" fax="" web="" email="Harrisonthindwa@yahoo.com" tel="" district="Kasungu" focalnum="265991621875" focaltitle="" focalname="Mr. Harrison Thindwa" address="" name="Lukwa" secondperson="" secondContact="" secondEmail="" services="" comments=""/>

    <marker logo="" catchment="" category="Community Victim Support Unit" lng="33.5040207" lat="-13.1043396" orgcategory="Community Based Organization" fax="" web="" email="Harrisonthindwa@yahoo.com" tel="" district="Kasungu" focalnum="265991621875" focaltitle="" focalname="Mr. Harrison Thindwa" address="" name="Kaomba" secondperson="" secondContact="" secondEmail="" services="" comments=""/>

    <marker logo="" catchment="" category="Community Victim Support Unit" lng="33.4387016" lat="-13.0638981" orgcategory="Community Based Organization" fax="" web="" email="Harrisonthindwa@yahoo.com" tel="" district="Kasungu" focalnum="265991621875" focaltitle="" focalname="Mr. Harrison Thindwa" address="" name="Mwase" secondperson="" secondContact="" secondEmail="" services="" comments=""/>

    <marker logo="" catchment="" category="Community Victim Support Unit" lng="33.6011009" lat="-12.5953703" orgcategory="Community Based Organization" fax="" web="" email="mzimbasocial@gmail.com" tel="" district="Mzimba" focalnum="265 999 230 802 " num= " 0 888 586 640" focaltitle="" focalname="Grace Mvula" address="" name="Mabulabo" secondperson="" secondContact="" secondEmail="" services="" comments=""/>

    <marker logo="" catchment="" category="Community Victim Support Unit" lng="33.6166687" lat="12.6166697" orgcategory="Community Based Organization" fax="" web="" email="mzimbasocial@gmail.com" tel="" district="Mzimba" focalnum="265999 230 802  " num= "0 888 586 640" focaltitle="" focalname="Grace Mvula" address="" name="Mzukuzuku" secondperson="" secondContact="" secondEmail="" services="" comments=""/>

    <marker logo="" catchment="" category="Community Victim Support Unit" lng="33.7833290" lat="-12.1999998" orgcategory="Community Based Organization" fax="" web="" email="mzimbasocial@gmail.com" tel="" district="Mzimba" focalnum="265 999 230 802  " num= " 0 888 586 640" focaltitle="" focalname="Grace Mvula" address="" name="M?belwa" secondperson="" secondContact="" secondEmail="" services="" comments=""/>

    <marker logo="" catchment="" category="Community Victim Support Unit" lng="10000.0000000" lat="-12.2500000" orgcategory="Community Based Organization" fax="" web="" email="mzimbasocial@gmail.com" tel="" district="Mzimba" focalnum="265 999 230 802  " num= " 0 888 586 640" focaltitle="" focalname="Grace Mvula" address="" name="Chindi" secondperson="" secondContact="" secondEmail="" services="" comments=""/>

    <marker logo="" catchment="" category="Community Victim Support Unit" lng="33.6383286" lat="-11.9807196" orgcategory="Community Based Organization" fax="" web="" email="mzimbasocial@gmail.com" tel="" district="Mzimba" focalnum="265 999 230 802  " num= " 0 888 586 640" focaltitle="" focalname="Grace Mvula" address="" name="Mzikubola" secondperson="" secondContact="" secondEmail="" services="" comments=""/>

    <marker logo="" catchment="" category="Community Victim Support Unit" lng="33.7500000" lat="-11.3833303" orgcategory="Community Based Organization" fax="" web="" email="mzimbasocial@gmail.com" tel="" district="Mzimba" focalnum="265 999 230 802  " num= " 0 888 586 640" focaltitle="" focalname="Grace Mvula" address="" name="Mtwalo" secondperson="" secondContact="" secondEmail="" services="" comments=""/>

    <marker logo="" catchment="" category="Community Victim Support Unit" lng="33.6777115" lat="-11.1341400" orgcategory="Community Based Organization" fax="" web="" email="mzimbasocial@gmail.com" tel="" district="Mzimba" focalnum="265 999 230 802  " num= " 0 888 586 640" focaltitle="" focalname="Grace Mvula" address="" name="Jalavikuwa(Thumbi)" secondperson="" secondContact="" secondEmail="" services="" comments=""/>

    <marker logo="" catchment="" category="Community Victim Support Unit" lng="33.7833290" lat="-12.4166698" orgcategory="Community Based Organization" fax="" web="" email="mzimbasocial@gmail.com" tel="" district="Mzimba" focalnum="265 999 230 802  " num= " 0 888 586 640" focaltitle="" focalname="Grace Mvula" address="" name="Khosolo Jere" secondperson="" secondContact="" secondEmail="" services="" comments=""/>

    <marker logo="" catchment="" category="Community Victim Support Unit" lng="33.5664215" lat="-12.3309603" orgcategory="Community Based Organization" fax="" web="" email="mzimbasocial@gmail.com" tel="" district="Mzimba" focalnum="265 999 230 802  " num= " 0 888 586 640" focaltitle="" focalname="Grace Mvula" address="" name="Levi Jere" secondperson="" secondContact="" secondEmail="" services="" comments=""/>

    <marker logo="" catchment="" category="Community Victim Support Unit" lng="33.5238075" lat="-10.8135233" orgcategory="Community Based Organization" fax="" web="" email="" tel="" district="Rumphi" focalnum="265881427040" focaltitle="" focalname="Joshua Luhana" address="" name="Katumbi" secondperson="" secondContact="" secondEmail="" services="" comments=""/>

    <marker logo="" catchment="" category="Community Victim Support Unit" lng="33.8052406" lat="-10.8029203" orgcategory="Community Based Organization" fax="" web="" email="" tel="" district="Rumphi" focalnum="265881427041" focaltitle="" focalname="Joshua Luhana" address="" name="Chikulamayembe" secondperson="" secondContact="" secondEmail="" services="" comments=""/>

    <marker logo="" catchment="" category="Community Victim Support Unit" lng="34.1997986" lat="-10.7646599" orgcategory="Community Based Organization" fax="" web="" email="" tel="" district="Rumphi" focalnum="265881427042" focaltitle="" focalname="Joshua Luhana" address="" name="Mwamlowe" secondperson="" secondContact="" secondEmail="" services="" comments=""/>

    <marker logo="" catchment="" category="Community Victim Support Unit" lng="33.8550835" lat="-11.0171947" orgcategory="Community Based Organization" fax="" web="" email="" tel="" district="Rumphi" focalnum="265881427043" focaltitle="" focalname="Joshua Luhana" address="" name="Mwalweni" secondperson="" secondContact="" secondEmail="" services="" comments=""/>

    <marker logo="" catchment="" category="Community Victim Support Unit" lng="33.4868813" lat="-10.8487997" orgcategory="Community Based Organization" fax="" web="" email="" tel="" district="Rumphi" focalnum="265881427044" focaltitle="" focalname="Joshua Luhana" address="" name="Zolokere" secondperson="" secondContact="" secondEmail="" services="" comments=""/>
